listing_id,listing_title,latitude,longitude,location_name,number_reviews,average_rating,average_nightly_price,nightly,weekend_night,property_protection_fee,cleaning_fee,tax_rate,min_stay,sleeps,bedrooms,bathrooms,property_type,internet,member_since,response_time,response_rate,calendar_last_updated,type,floor,sq_footage,max_occupancy,building_type,city
3937530ha,Amazing East Chestnut Street Apartment,39.9506755,-75.1601985,"Midtown Village, Philadelphia, PA, USA",66,4.7,244,,,,,,1,5,2,2,apartment,Yes,2011,Within an hour,,"June 8, 2017",apartment,,1005,5,,Philidelphia
668432,"Friendly 2b2b, Near Schools, Hospitals, Rittenhouse, Schuylkill Trail, Downtown",39.941462,-75.18315,"South Philadelphia, Philadelphia, PA, USA",43,4.9,143,170,,,,8.5%,3,4,2,1,house,Yes,2015,Within an hour,100%,"June 8, 2017",house,,1200,,house,Philidelphia
477685,Luxury Condo In Historic District Close To Convention Center,39.947998,-75.143482,"Center City, Philadelphia, PA, USA",61,4.8,194,200,224,,125,8.5%,2,4,2,1,apartment,Yes,2007,Within a few hours,90%,"June 8, 2017",apartment,5,1200,4,,Philidelphia
4048437ha,Attractive East Chestnut Street Apartment,39.9506755,-75.1601985,"Midtown Village, Philadelphia, PA, USA",52,4.7,244,,,,,,1,5,2,2,apartment,Yes,2011,Within an hour,,"June 7, 2017",apartment,,1005,5,,Philidelphia
583380,"Cozy townhouse steps to Convention Center, Independence Hall & The Liberty Bell",39.945625,-75.162481,"Gayborhood, Philadelphia, PA, USA",47,4.8,193,204,227,,125,8.5%,2,4,2,1,townhome,Yes,2007,Within an hour,100%,"June 8, 2017",townhome,,,4,,Philidelphia
619713,Charming Home on Walking Street Close To Convention Center & Independence Hall,39.946663,-75.160316,"Center City, Philadelphia, PA, USA",49,4.8,194,215,241,,125,8.5%,2,4,2,1,townhome,Yes,2007,Within an hour,100%,"June 8, 2017",townhome,,800,4,,Philidelphia
179041ha,Luxury Condo in Historic District Close to Convention Center,39.947998,-75.143482,"Center City, Philadelphia, PA, USA",58,4.8,195,194,218,,125,8.5%,2,4,2,1,condo,Yes,2007,Within a few hours,100%,"June 8, 2017",condo,,1200,4,,Philidelphia
3165419ha,Cozy Home in Historic Washington Square,39.9456101,-75.1625769,"Gayborhood, Philadelphia, PA, USA",45,4.6,201,200,224,,125,8.5%,2,4,2,1,townhome,Yes,2007,Within 12 hours,100%,"June 8, 2017",townhome,,,4,,Philidelphia
3991512ha,Two Bedroom And One Bathroom Apartment Easily Accessible To Center City,39.9915019,-75.220846,"West Philadelphia, Philadelphia, PA, USA",5,,158,225,,,,,2,6,2,1,apartment,Yes,2007,Within 12 hours,100%,"June 6, 2017",apartment,3,1000,6,house,Philidelphia
4179206ha,Cozy Renovated Home in Fairmount with 3+ CAR PARKING!,39.968634,-75.170107,"North Philadelphia, Philadelphia, PA, USA",13,4.3,160,150,175,,,,2,9,3,1,house,Yes,2016,Within a few days,80%,"June 8, 2017",house,,,9,,Philidelphia
4279272ha,"Luxury Center City 2BR/2Bath by Convention Center, Brand New, Modern & Spacious",39.9565836,-75.1596881,"Chinatown, Philadelphia, PA, USA",10,4.6,137,149,219,,60,,1,6,2,2,apartment,Yes,2016,Within an hour,100%,"June 6, 2017",apartment,2,900,6,building,Philidelphia
642096,Historical Carriage Home in Rittenhouse,39.950369,-75.17701,"Center City, Philadelphia, PA, USA",27,4.9,200,200,,,,,,4,1,1,house,Yes,2014,Within a day,90%,"May 31, 2017",house,,,4,,Philidelphia
4048438ha,Attractive West Chestnut Street Apartment,39.9521761,-75.174321,"Center City, Philadelphia, PA, USA",32,4.6,246,,,,,,1,5,2,2,apartment,Yes,2011,Within an hour,,"June 8, 2017",apartment,,886,5,,Philidelphia
970782,BRAND NEW 4BD/3Bth w/ patio and HUGE Rooftop deck. Amazing Views!,39.9382639,-75.175327,"South Philadelphia, Philadelphia, PA, USA",12,4.8,382,325,439,,120,12.5%,2,10,4,3,house,Yes,2016,Within a few hours,100%,"June 8, 2017",house,,2400,,,Philidelphia
211425ha,"HAWAII Indoors! Swim-up Tiki-Bar 20' Palms,5 waterfalls,2 Theaters,Pool, Spa,Gym",39.9255428,-75.4112092,"Upper Providence Township, PA, USA",32,,,1,,,,,2,18,6,3,estate,Yes,2007,Within an hour,100%,"June 2, 2017",estate,,9000,18,,Philidelphia
735006,Center City Philadelphia Guest House,39.9488471,-75.16835779,"Center City, Philadelphia, PA, USA",1,,,,,,350,7.0%,1,17,8,7,townhome,Yes,2012,Within an hour,100%,"May 31, 2017",townhome,,5000,17,house,Philidelphia
311144,Luxury Row House Apartment Just Off Exciting South Street,39.94085312,-75.14901733,"South Philadelphia, Philadelphia, PA, USA",41,4.8,164,140,200,,100,,2,6,1,1,apartment,Yes,2005,Within 2 days,100%,"June 8, 2017",apartment,,1200,6,,Philidelphia
3931478ha,"Hist Dist w/free parking, Charming 3rd Floor Bdr, Pvt Bath And Roof-deck",39.9436336,-75.1506961,"Center City, Philadelphia, PA, USA",27,4.9,125,125,,,,8.5%,2,2,1,1,apartment,No,2016,Within an hour,90%,"June 7, 2017",apartment,3,256,2,,Philidelphia
4016085ha,Amazing West Chestnut Street Apartment,39.9521761,-75.174321,"Center City, Philadelphia, PA, USA",25,4.8,247,,,,,,1,5,2,2,apartment,Yes,2011,Within an hour,,"June 7, 2017",apartment,,886,5,,Philidelphia
4276105ha,The Mini-House... A Classic Northern Liberties Trinity Townhouse,39.9667641,-75.1428385,"North Philadelphia, Philadelphia, PA, USA",13,4.6,117,125,,,25,14.2%,2,2,1,1,townhome,Yes,2016,Within a day,100%,"June 4, 2017",townhome,,,2,,Philidelphia
4288476ha,"Luxury Center City 2BR/2Bath by Convention Center, Brand New, Modern & Spacious",39.9565836,-75.1596881,"Chinatown, Philadelphia, PA, USA",11,4.6,137,149,219,,60,,1,6,2,2,apartment,Yes,2016,Within a few hours,100%,"June 5, 2017",apartment,2,900,6,building,Philidelphia
3949989ha,"Stunning Historic Trinity, Renovated 2015, Parking, Patio, Near Rittenhouse",39.9455459,-75.1778877,"Center City, Philadelphia, PA, USA",10,,195,195,,,,8.5%,3,4,1,1,house,Yes,2015,Within 12 hours,90%,"June 7, 2017",house,,800,4,,Philidelphia
4272941ha,Luxurious 2BR Fully Furnished Apt In Heart Of City,39.9521761,-75.174321,"Center City, Philadelphia, PA, USA",9,,254,199,249,,115,10.0%,2,6,2,2,apartment,Yes,2014,Within an hour,100%,"June 7, 2017",apartment,,850,,building,Philidelphia
4029010ha,Modern Row Home on the Most Beautiful Tree-Lined Street in Philadelphia,39.964125,-75.170277,"North Philadelphia, Philadelphia, PA, USA",7,,359,350,,,150,16.5%,3,10,3,2,house,Yes,2015,Within a day,80%,"June 3, 2017",house,,2800,10,,Philidelphia
472240,"Sophisticated, Modern 2BR in the Heart of Philadelphia.",39.9446072,-75.1675347,"Center City, Philadelphia, PA, USA",26,,225,250,,,100,8.5%,4,4,2,2,house,Yes,2013,Within a day,100%,"June 2, 2017",house,,900,4,,Philidelphia
1011479,Great location - one block from Rittenhouse Square -Center City charm.,,,"Center City, Philadelphia, PA, USA",5,,243,200,,,100,,2,6,3,3,apartment,Yes,2017,Within a few days,60%,"June 7, 2017",apartment,1,1900,,house,Philidelphia
983607,Dupree Gallery Apartment,39.940968,-75.1523799,"South Philadelphia, Philadelphia, PA, USA",6,4.5,150,150,,,65,8.0%,,8,4,2,townhome,Yes,2016,Within an hour,100%,"June 8, 2017",townhome,,,8,building,Philidelphia
846198,Quiet Center City Townhouse,39.9444108,-75.1762808,"South Philadelphia, Philadelphia, PA, USA",7,,147,150,,,,8.5%,3,4,2,1,house,Yes,2016,Within 12 hours,100%,"June 5, 2017",house,,840,4,,Philidelphia
377074ha,Renovated Apartment in Heart of Center City,39.946034,-75.160475,"Center City, Philadelphia, PA, USA",33,4.9,187,195,,,,16.0%,3,4,1,1,apartment,Yes,2011,Within 12 hours,100%,"June 8, 2017",apartment,,750,4,,Philidelphia
4259510ha,"Small, tidy home, quiet family friendly location close to everything in Philly",39.9736384,-75.1391502,"North Philadelphia, Philadelphia, PA, USA",19,4.5,180,180,,,,8.0%,,8,3,2,house,Yes,2016,Within 12 hours,100%,"June 8, 2017",house,,800,8,,Philidelphia
843214,Beautifully Remodeled 3 Story Home In Booming Newbold Area Of Philadelphia!,39.934744,-75.169406,"South Philadelphia, Philadelphia, PA, USA",4,3.8,245,235,250,,200,,3,10,3,3,house,Yes,2016,Within 2 days,80%,"June 5, 2017",house,,2300,,,Philidelphia
390277ha,Houseboat Pisces: Most Unique Vacation Rental in Town!,39.9533071,-75.1398335,"Center City, Philadelphia, PA, USA",17,4.8,212,,,,,,2,6,2,1,house,Yes,2005,Within an hour,,"June 8, 2017",house,,0,6,,Philidelphia
4441258ha,Spacious Apartment in Historic Old City Philadelphia,39.952956,-75.145342,"Center City, Philadelphia, PA, USA",13,4.9,189,165,219,,50,,1,6,2,1,apartment,Yes,2017,Within an hour,100%,"June 7, 2017",apartment,1,1500,,building,Philidelphia
831443,New Modern Home With a Roof Deck,39.933867,-75.170366,"South Philadelphia, Philadelphia, PA, USA",15,4.9,239,200,225,,75,8.0%,2,6,2,1,townhome,Yes,2016,Within an hour,100%,"May 23, 2017",townhome,,1000,6,,Philidelphia
966068,The Historic & Walkable Philadelphia Washington Square West Home (2 bed/2 bath),39.9457694,-75.1624725,"Gayborhood, Philadelphia, PA, USA",9,,234,209,259,,99,8.5%,2,5,2,2,house,Yes,2016,Within an hour,100%,"June 8, 2017",house,,1050,5,,Philidelphia
818663,"Spacious, Sunny 4BD/2 Bath Right off of South St.  Great Location!",39.9427809,-75.169182,"South Philadelphia, Philadelphia, PA, USA",18,4.8,317,299,399,,110,12.5%,2,12,4,2,house,Yes,2016,Within a few hours,100%,"June 8, 2017",house,,2000,,,Philidelphia
4306992ha,"Luxury Center City 2BR/2Bath by Convention Center, Brand New, Modern & Spacious",,,"Center City, Philadelphia, PA, USA",8,4.5,139,149,219,,60,,1,6,2,2,apartment,Yes,2016,Within 12 hours,100%,"June 3, 2017",apartment,3,900,6,building,Philidelphia
817461,Luxury Spacious Home W/large Patio And Amazing Rooftop Deck W/city View,39.938998,-75.174002,"South Philadelphia, Philadelphia, PA, USA",15,4.8,357,329,439,,110,12.5%,2,12,4,2,house,Yes,2016,Within an hour,100%,"June 8, 2017",house,,2500,,,Philidelphia
4277432ha,Old City Masterpiece Steps From Historic Philly,39.952956,-75.145342,"Center City, Philadelphia, PA, USA",11,4.8,170,170,230,,,,,8,3,2,apartment,Yes,2014,Within an hour,100%,"June 7, 2017",apartment,2,1500,8,building,Philidelphia
3865838ha,An Amazing Townhouse in Historic South Philly!,39.931149,-75.159381,"South Philadelphia, Philadelphia, PA, USA",22,4.5,300,300,325,,125,,2,10,4,2,townhome,Yes,2013,Within a few days,70%,"June 8, 2017",townhome,,2400,10,,Philidelphia
4330124ha,Abington Jenkintown Three Bedroom apartment in Philadelphia Suburbs,40.0865284,-75.097737,"Huntingdon Valley, Bryn Athyn, PA, USA",5,4.8,84,111,,,50,,,6,3,1,apartment,Yes,2016,Within an hour,100%,"June 8, 2017",apartment,2,1100,,house,Philidelphia
4311139ha,"Luxury Center City 2BR Apt by Convention Center, Brand New, Modern & Spacious",,,"Center City, Philadelphia, PA, USA",6,4.8,127,139,209,,60,,1,6,2,1,apartment,Yes,2016,Within 12 hours,100%,"June 5, 2017",apartment,1,850,6,building,Philidelphia
4081205ha,Gorgeous! Parking! Park Front! - Perfect Center City Location!,39.9329512,-75.1497531,"South Philadelphia, Philadelphia, PA, USA",28,4.8,426,345,535,,120,14.5%,1,14,3,3,house,Yes,2015,Within an hour,100%,"June 6, 2017",house,,2400,,,Philidelphia
627331,"Open 2Bed/1.5Ba 2 Story Apt, S. Philly",39.926857,-75.1687649,"South Philadelphia, Philadelphia, PA, USA",6,,173,192,215,,60,6.0%,2,6,2,1,apartment,Yes,2015,Within a few days,50%,"May 31, 2017",apartment,2,,6,building,Philidelphia
4212549ha,Historic Antique Row Studio 3,39.9446527,-75.15900337,"Center City, Philadelphia, PA, USA",5,4.6,155,90,125,,65,12.5%,2,3,1,1,studio,No,2014,Within a few hours,100%,"June 7, 2017",studio,,,3,,Philidelphia
3885810ha,Spacious Rittenhouse Luxury Suite,39.94712834,-75.17285464,"Center City, Philadelphia, PA, USA",25,4.5,144,140,155,,,,,4,1,1,apartment,Yes,2014,Within a few hours,100%,"June 6, 2017",apartment,1,1100,4,building,Philidelphia
757481,1840s Rittenhouse Mansion,39.94638455,-75.17246504,"Center City, Philadelphia, PA, USA",8,,,1,,,130,10.0%,3,12,7,5,house,Yes,2015,Within a few days,100%,"June 7, 2017",house,,,12,,Philidelphia
4498644ha,"Private Room in a 2BD/2BA with Doorman, Gym, Movie Rm & Common Rm!",,,"Center City, Philadelphia, PA, USA",0,,47,,,,75,,29,2,1,1,apartment,Yes,2017,,,"May 9, 2017",apartment,4,,,,Philidelphia
3881126ha,Heart Of Philadelphia & Near All Attractions! Queen's Village Studio W/ Balcony,39.93897689,-75.14532177,"South Philadelphia, Philadelphia, PA, USA",24,4.5,148,90,125,,60,15.5%,2,2,1,1,apartment,Yes,2014,Within an hour,100%,"June 7, 2017",apartment,2,300,2,building,Philidelphia
731689,"Beautiful 2 BR bi-level, garage, walk to Art Museum, park and Center City",39.9722579,-75.1816585,"North Philadelphia, Philadelphia, PA, USA",3,,100,,,,,,30,6,2,1,townhome,Yes,2015,Within 12 hours,90%,"April 12, 2017",townhome,,1200,6,,Philidelphia
710046,Sunny Modern Luxury Apartment with Rustic Design and High Ceilings,39.93634753,-75.16587802,"South Philadelphia, Philadelphia, PA, USA",12,4.6,208,205,220,,100,15.5%,3,9,2,2,apartment,Yes,2015,Within a few days,100%,"May 29, 2017",apartment,3,1000,9,house,Philidelphia
720782,Center City -- Cute & Cozy Camp,39.9506452,-75.169841,"Center City, Philadelphia, PA, USA",8,4.1,114,136,,,,8.0%,2,5,1,1,apartment,Yes,2015,Within a day,100%,"June 7, 2017",apartment,2,900,5,building,Philidelphia
3875810ha,"Charming Row Home, Great Location",39.94110833,-75.14866906,"South Philadelphia, Philadelphia, PA, USA",36,4.7,168,145,235,,,8.5%,1,6,2,1,house,Yes,2014,Within an hour,100%,"June 8, 2017",house,,1000,6,,Philidelphia
4423841ha,Unique Traditional w Modern Touches by Temple University,,,"North Philadelphia, Philadelphia, PA, USA",1,,149,149,,,100,,2,8,3,1,apartment,Yes,2014,Within a few hours,100%,"June 7, 2017",apartment,2,,8,building,Philidelphia
762607,Beautiful House On Unique Garden Block In The City.,39.941977,-75.1794649,"South Philadelphia, Philadelphia, PA, USA",7,4.7,246,160,275,,,8.0%,,10,4,2,townhome,Yes,2015,Within an hour,100%,"June 4, 2017",townhome,,,10,house,Philidelphia
917347,"Newly Renovated W/ Large Patio & Rooftop Deck, Spacious And Clean",39.9381028,-75.1755994,"South Philadelphia, Philadelphia, PA, USA",5,4.4,332,239,345,,100,12.5%,2,12,4,2,house,Yes,2016,Within a day,100%,"June 8, 2017",house,,2000,12,,Philidelphia
4108722ha,Prime 2 Bedroom In Historic Center,39.9446527,-75.15903556,"Center City, Philadelphia, PA, USA",11,4.7,267,140,175,,,15.0%,2,8,2,1,apartment,No,2014,Within an hour,100%,"June 7, 2017",apartment,,,8,,Philidelphia
4225734ha,Nice 2br Apartment 5 Blocks From Upenn,39.9558981,-75.2117123,"West Philadelphia, Philadelphia, PA, USA",4,4.8,91,69,145,,,,,8,2,1,apartment,No,2016,Within 12 hours,100%,"June 7, 2017",apartment,,,,,Philidelphia
649568,Luxury Loft In Historic Old City In Downtown Philadelphia.,39.95123819,-75.14561038,"Center City, Philadelphia, PA, USA",26,,307,299,349,,100,9.0%,2,6,2,2,apartment,Yes,2014,Within 2 days,100%,"June 1, 2017",apartment,5,2100,6,building,Philidelphia
4253224ha,Charming Loft In Heart Of Historic District,39.9523067,-75.14598203,"Center City, Philadelphia, PA, USA",8,4.6,162,135,,,30,16.5%,2,3,1,1,condo,Yes,2016,Within 12 hours,90%,"June 8, 2017",condo,5,700,3,building,Philidelphia
893865,Spacious Brownstone Apartment in Best Neighborhood with a Church View,39.9487898,-75.1781529,"Center City, Philadelphia, PA, USA",2,3.5,204,175,275,,50,8.5%,,8,2,1,apartment,Yes,2015,Within an hour,100%,"June 8, 2017",apartment,3,,,building,Philidelphia
4284958ha,Beautiful Rittenhouse Suite,39.948545,-75.175607,"Center City, Philadelphia, PA, USA",10,4.8,104,95,130,,30,,,4,2,1,apartment,No,2014,Within an hour,100%,"June 6, 2017",apartment,3,,,building,Philidelphia
4038709ha,Historic Trinity Near Rittenhouse Square,39.9462066,-75.1737387,"Center City, Philadelphia, PA, USA",12,,300,300,,,,,3,4,2,2,house,Yes,2015,Within a few hours,90%,"May 8, 2017",house,,1000,4,,Philidelphia
237511ha,Cosy and Charming Basement Apartment in Bella Vista-Philadelphia,39.937451,-75.1561119,"South Philadelphia, Philadelphia, PA, USA",20,4.7,105,105,,,30,,2,2,Studio,1,apartment,Yes,2008,Within 12 hours,80%,"June 2, 2017",apartment,0,35,2,house,Philidelphia
4320109ha,Free Parking Furnished Parkview 1 Bed Duplex Apartment in Northeast Philadelphia,40.035837,-75.0202247,"Northeast Philadelphia, Philadelphia, PA, USA",1,,63,63,,,150,8.5%,30,2,1,1,apartment,Yes,2016,,,"June 7, 2017",apartment,2,800,,building,Philidelphia
733988,Spacious Modern Home With Roof Deck,39.935685,-75.176778,"South Philadelphia, Philadelphia, PA, USA",10,4.9,290,282,320,,,,2,6,3,3,house,Yes,2015,Within a day,90%,"May 27, 2017",house,,1900,6,,Philidelphia
4246048ha,CENTRALLY LOCATED IN CENTER CITY NEAR CONVENTION CENTER!,39.9488295,-75.1571117,"Center City, Philadelphia, PA, USA",6,,199,199,,,35,,2,4,1,1,apartment,No,2016,Within a day,100%,"June 7, 2017",apartment,,,,,Philidelphia
615142,Marvelous One Bedroom In Rittenhouse Square Area In The Heart Of Center City,39.9534033,-75.174647,"Center City, Philadelphia, PA, USA",2,,193,225,275,,50,16.5%,,4,1,1,condo,Yes,2012,Within a few hours,100%,"May 30, 2017",condo,4,700,4,,Philidelphia
3958008ha,Charming 3 Bedroom Apartment - Historic Center,39.93908383,-75.1454827,"South Philadelphia, Philadelphia, PA, USA",13,4.5,360,170,200,,110,15.0%,2,8,3,2,apartment,Yes,2014,Within 12 hours,100%,"June 7, 2017",apartment,3,1300,8,building,Philidelphia
408019,Beautiful Turn-of-the-Century Row House in South Philadelphia,39.92343903,-75.17355347,"South Philadelphia, Philadelphia, PA, USA",55,4.8,415,415,425,,150,16.5%,2,10,4,3,house,Yes,2012,Within a few hours,100%,"June 6, 2017",house,,,10,,Philidelphia
4202874ha,Cozy Downtown apartment in Philadelphia with an outdoor space and high ceilings,39.9456799,-75.1701644,"Center City, Philadelphia, PA, USA",9,4.4,125,120,150,,,,,4,Studio,1,apartment,Yes,2014,Within a few hours,90%,"June 8, 2017",apartment,1,750,4,house,Philidelphia
4209554ha,Elegant Center City 5th Fl 3BR/2BA Apartment W/Balcony Near PA Convention Center,39.95637368,-75.1596046,"Chinatown, Philadelphia, PA, USA",4,4.5,300,329,369,,169,18.5%,,10,3,2,condo,Yes,2016,Within an hour,100%,"June 8, 2017",condo,5,1100,10,building,Philidelphia
4286870ha,Beautiful House in Heart of Center City Philadelphia,39.956726,-75.173276,"Center City, Philadelphia, PA, USA",3,4.3,97,97,,,10,14.5%,2,4,2,2,townhome,Yes,2016,Within an hour,90%,"May 16, 2017",townhome,,1134,4,house,Philidelphia
333235,Convention Center & Center City,39.9490144,-75.1544776,"Center City, Philadelphia, PA, USA",21,4.8,620,600,700,,200,15.5%,,10,4,4,townhome,Yes,2010,Within 12 hours,80%,"May 24, 2017",townhome,2,2400,10,,Philidelphia
4358532ha,Hip modern beautiful 4 floor home -- Close to everything,39.9411895,-75.1484441,"South Philadelphia, Philadelphia, PA, USA",3,,195,150,295,,125,14.5%,1,7,3,2,house,No,2016,Within a few hours,100%,"June 8, 2017",house,,,,,Philidelphia
4277800ha,Nice Private House Easy Access to Center City 10 Mins Away,39.98333,-75.136186,"North Philadelphia, Philadelphia, PA, USA",2,4.5,131,129,,,100,,2,5,3,1,house,Yes,2014,Within an hour,100%,"June 7, 2017",house,,,5,,Philidelphia
670313,Historic House in Ideal Center City Location,39.9411789,-75.1483647,"South Philadelphia, Philadelphia, PA, USA",24,4.8,250,225,325,,100,8.5%,,10,3,1,house,Yes,2015,Within an hour,100%,"June 8, 2017",house,,,,,Philidelphia
4292134ha,City Of Brotherly Love,40.0269813,-75.1323424,"North Philadelphia, Philadelphia, PA, USA",3,3.3,59,49,55,,30,7.5%,,6,2,2,apartment,No,2016,Within a day,80%,"June 7, 2017",apartment,,,,,Philidelphia
900196,Modern and Comfortable South Philadelphia Home - Family & Business friendly!,39.9280215,-75.1631019,"South Philadelphia, Philadelphia, PA, USA",6,4.8,235,200,225,,150,8.5%,,10,3,1,house,Yes,2016,Within 12 hours,90%,"June 8, 2017",house,,1500,10,,Philidelphia
4423039ha,"New Remodeled 3BR House Near Subway, Wifi/TV",,,"South Philadelphia, Philadelphia, PA, USA",4,4.8,108,99,130,,45,15.0%,,6,3,1,house,No,2016,Within a few hours,100%,"June 4, 2017",house,,,,,Philidelphia
1005875,"Nice, Modern Sunny & Private Apartment In Philadelphia",,,"North Philadelphia, Philadelphia, PA, USA",0,,95,95,,,100,,2,5,2,1,apartment,Yes,2014,Within an hour,100%,"June 7, 2017",apartment,2,,5,building,Philidelphia
1010582,Beautiful Loft and Recording Studio,39.9778948,-75.134719,"North Philadelphia, Philadelphia, PA, USA",1,,666,499,1,,299,8.0%,,20,5,2,apartment,No,2017,Within 12 hours,100%,"June 7, 2017",apartment,3,4400,20,building,Philidelphia
962355,Charming Rittenhouse Colonial Guest House,39.94817331,-75.16865715,"Center City, Philadelphia, PA, USA",9,4.9,523,,,,,7.0%,1,6,3,2,townhome,Yes,2012,Within a few hours,100%,"June 8, 2017",townhome,,1500,6,house,Philidelphia
4253477ha,Historic Antique Row 1 Bedroom,39.9448372,-75.1591812,"Center City, Philadelphia, PA, USA",5,4.6,192,110,135,,85,12.0%,2,5,1,1,apartment,No,2014,Within a few hours,100%,"June 7, 2017",apartment,,,5,,Philidelphia
4292973ha,3 Bedroom House In Philadelphia That Accommodates 6-12 People!,39.9424961,-75.1536875,"Center City, Philadelphia, PA, USA",3,,297,300,325,,130,8.5%,2,12,3,1,house,Yes,2016,Within an hour,100%,"June 1, 2017",house,,,12,,Philidelphia
967834,The Rittenhouse St. House + Parking,,,"Center City, Philadelphia, PA, USA",3,,500,479,529,,109,8.5%,3,7,3,2,house,Yes,2016,Within an hour,100%,"June 5, 2017",house,,2100,,,Philidelphia
4212545ha,Historic Antique Row Studio 2,39.9446527,-75.1590892,"Center City, Philadelphia, PA, USA",6,4.3,153,90,125,,65,12.2%,2,3,1,1,studio,No,2014,Within an hour,100%,"June 7, 2017",studio,,,3,,Philidelphia
4307008ha,"Luxury Center City 2BR/2Bath by Convention Center, Brand New, Modern & Spacious",,,"Center City, Philadelphia, PA, USA",1,,152,149,219,,60,,1,6,2,2,apartment,Yes,2016,Within a few hours,100%,"June 3, 2017",apartment,3,900,6,building,Philidelphia
984208,Nice Private House Easy Access to Center City 10 Mins Away,,,"North Philadelphia, Philadelphia, PA, USA",2,,131,129,,,100,,2,5,3,1,house,Yes,2014,Within an hour,100%,"June 7, 2017",house,,,5,,Philidelphia
3853605ha,CHARMING 4BR SOUTH PHILLY ROW HOME,39.9239876,-75.1729266,"South Philadelphia, Philadelphia, PA, USA",5,,237,199,235,,125,14.5%,1,9,4,1,house,Yes,2014,Within a few hours,100%,"June 8, 2017",house,,1500,9,,Philidelphia
882409,Elegant Federal Mansion in Washington Square West with 6 bedrooms & 4.5 bathroom,39.9450566,-75.158347,"Center City, Philadelphia, PA, USA",4,,,1,,,,14.5%,2,11,6,4,townhome,Yes,2016,Within a day,100%,"June 7, 2017",townhome,,,11,,Philidelphia
3996309ha,Beautiful And Spacious In Fantastic Central Location,39.9413713,-75.1610697,"South Philadelphia, Philadelphia, PA, USA",9,4.6,643,600,700,,125,8.5%,2,12,4,2,house,Yes,2015,Within a day,100%,"May 26, 2017",house,,2750,12,,Philidelphia
878118,"Cutest House With 50 Ft Garden, Walkable To Univ Of Pa And Rittenhouse Square",39.94128274,-75.18392001,"South Philadelphia, Philadelphia, PA, USA",5,4.8,211,159,245,,,10.0%,2,6,2,1,house,Yes,2010,Within an hour,100%,"May 26, 2017",house,,,6,,Philidelphia
4460067ha,Hamilton House - The Perfect Center City Location,,,"South Philadelphia, Philadelphia, PA, USA",5,4.6,257,245,375,,95,15.5%,1,8,3,2,house,No,2017,Within an hour,100%,"June 6, 2017",house,,,,,Philidelphia
1034094,Homey and Modern Mount Airy House in wooded neighborhood,,,"Northwest Philadelphia, Philadelphia, PA, USA",0,,214,250,,,100,,6,8,4,3,house,Yes,2017,,,"May 9, 2017",house,,2800,8,,Philidelphia
4191469ha,"14 Beds: Conventions, Groups, Wedding, Grads, Gathering Space!",39.9315913,-75.1733016,"South Philadelphia, Philadelphia, PA, USA",4,,108,85,169,,,8.0%,2,18,3,1,townhome,Yes,2016,Within an hour,100%,"May 29, 2017",townhome,,2000,18,house,Philidelphia
4364726ha,Cozy trinity home in Manayunk near Main street & TRAIN with  fireplace 2BR,40.0242678,-75.2179048,"Roxborough-Manayunk, Philadelphia, PA, USA",0,,108,100,129,,80,,2,6,2,1,house,Yes,2016,Within an hour,100%,"June 8, 2017",house,,1000,6,house,Philidelphia
913424,3 bedroom Fishtown Oasis,39.9713904,-75.1328812,"North Philadelphia, Philadelphia, PA, USA",3,4.3,475,395,,,100,15.5%,3,8,3,3,house,Yes,2016,Within a few hours,100%,"June 8, 2017",house,,2200,8,,Philidelphia
4289979ha,"Luxury Center City Apartment by Convention Center, Brand New, Modern & Spacious",,,"Chinatown, Philadelphia, PA, USA",3,,108,118,138,,40,,1,4,1,1,apartment,Yes,2016,Within a few hours,100%,"May 19, 2017",apartment,1,,4,building,Philidelphia
701424,"Rittenhouse 2 Br 2 Ba, Ideal Location",39.94989175,-75.17727782,"Center City, Philadelphia, PA, USA",9,3.4,251,225,325,,65,8.5%,,8,2,2,apartment,Yes,2015,Within an hour,100%,"June 8, 2017",apartment,3,1000,8,building,Philidelphia
3792504ha,Private One Bedroom Historic Germantown APT,40.0294839,-75.17571,"Northwest Philadelphia, Philadelphia, PA, USA",12,4.8,86,99,109,,,7.0%,2,2,1,1,house,No,2014,Within a day,90%,"May 12, 2017",house,,,2,,Philidelphia
221323ha,Your Own Carriage House Loaded with Amenities in the Heart of Philadelphia,39.99261,-75.219612,"West Philadelphia, Philadelphia, PA, USA",10,4.7,190,250,,,,,2,5,1,1,house,Yes,2007,Within an hour,100%,"May 22, 2017",house,,800,5,,Philidelphia
4280381ha,Cozy studio near Penn & Drexel,,,"West Philadelphia, Philadelphia, PA, USA",1,,95,95,,,,8.0%,,2,1,1,apartment,No,2016,Within a day,90%,"June 5, 2017",apartment,,,,,Philidelphia
4288828ha,Urban Carriage House - Rittenhouse Square,39.9488706,-75.1768443,"Center City, Philadelphia, PA, USA",3,4.7,596,565,620,,85,,4,10,2,2,condo,No,2016,Within a few hours,100%,"May 31, 2017",condo,,,,,Philidelphia
1011203,Private Historic Residence With Separate Cottage House/15ml From Philadelphia,40.1193751,-75.2157082,"Flourtown, PA, USA",2,,814,800,849,,300,3.0%,2,10,6,4,house,No,2017,Within an hour,100%,"June 7, 2017",house,,,,,Philidelphia
1014898,3 Bedroom South Philly Rowhouse Near Passyunk East,,,"South Philadelphia, Philadelphia, PA, USA",1,,120,120,,,75,,2,6,3,1,house,No,2017,Within a few hours,100%,"June 1, 2017",house,,,,,Philidelphia
3868231ha,Newly Renovated Apartment In Heart Of Center City,39.946034,-75.160475,"Center City, Philadelphia, PA, USA",8,4.6,185,195,,,,16.0%,3,4,2,1,apartment,No,2011,Within a few days,70%,"June 8, 2017",apartment,2,750,4,,Philidelphia
739223,"Large, Beautiful Center City Condo Centrally Located with PARKING!!",39.9602021,-75.1554861,"North Philadelphia, Philadelphia, PA, USA",4,,286,325,,,125,8.0%,2,6,2,2,condo,No,2015,Within a day,100%,"June 7, 2017",condo,,1300,6,building,Philidelphia
4281046ha,Sunny Studio in the Heart of University City,,,"West Philadelphia, Philadelphia, PA, USA",4,4.5,90,90,,,,8.0%,,2,1,1,apartment,No,2016,Within an hour,100%,"June 7, 2017",apartment,,,,,Philidelphia
4299213ha,"Great Location, Cozy, Charming, Sleeps 2-4",39.9424961,-75.1536875,"Center City, Philadelphia, PA, USA",0,,122,115,135,,95,8.5%,2,4,1,1,apartment,Yes,2016,Within a few hours,80%,"June 1, 2017",apartment,1,,,house,Philidelphia
4513686ha,2 Bedroom 2 Bath Fully Furnished luxury Apartment in Heart of Philadelphia,,,"Center City, Philadelphia, PA, USA",1,,251,199,249,,115,14.0%,2,6,2,2,apartment,Yes,2014,Within an hour,100%,"June 5, 2017",apartment,,850,,building,Philidelphia
999733,"Beautiful, Newly Renovated University City House for Rent",39.9481354,-75.2153717,"West Philadelphia, Philadelphia, PA, USA",2,,250,325,,,125,15.5%,2,8,4,2,house,Yes,2017,Within a few days,100%,"June 6, 2017",house,,,8,,Philidelphia
970791,"Brand NEW, Modern, Chef's Kitchen, Spa-Like Bathrooms & Rooftop Deck",39.938257,-75.175274,"South Philadelphia, Philadelphia, PA, USA",2,,454,399,549,,125,12.5%,2,10,4,3,house,Yes,2016,Within 12 hours,100%,"June 8, 2017",house,,2600,,,Philidelphia
4202345ha,"Luxury ""Penthouse Level"" 3BR/3BA Condo with amazing views near Convention Center",39.95430265,-75.15514036,"Center City, Philadelphia, PA, USA",2,,379,349,469,,159,18.5%,,10,3,3,condo,Yes,2016,Within an hour,100%,"June 8, 2017",condo,8,,10,building,Philidelphia
995032,2 bedroom apartment in center city of Philadelphia right off Convention Center,,,"Center City, Philadelphia, PA, USA",2,,149,139,,,80,8.0%,2,6,2,1,apartment,No,2016,Within an hour,100%,"June 7, 2017",apartment,,,,,Philidelphia
996228,"Modern One Bedroom Apartment With Free Parking Near Geno's/pat's, Sports Centers",,,"South Philadelphia, Philadelphia, PA, USA",1,,114,109,,,35,8.0%,2,3,1,1,apartment,No,2016,Within an hour,100%,"June 7, 2017",apartment,,,,,Philidelphia
964509,"Nicely furnished, near Art Museum",39.968534,-75.178232,"North Philadelphia, Philadelphia, PA, USA",0,,93,,,,100,15.5%,7,4,2,1,townhome,No,2017,,,"May 11, 2017",townhome,,,,,Philidelphia
4200941ha,Apartment In The Historic District Of Philadelphia -society Hill,39.9426,-75.147139,"Center City, Philadelphia, PA, USA",1,,171,300,,,,,5,3,2,1,apartment,Yes,2008,,,"January 15, 2017",apartment,1,900,3,house,Philidelphia
986840,1BR Apartment with free parking at Broad St near center city of Philadelphia,39.931467,-75.167721,"South Philadelphia, Philadelphia, PA, USA",2,4.5,119,119,,,30,,2,3,1,1,apartment,Yes,2016,Within an hour,100%,"June 7, 2017",apartment,3,300,3,building,Philidelphia
4496594ha,Bridgestreet at the Arch - Two Bedroom - BST,39.955318,-75.168049,"Center City, Philadelphia, PA, USA",0,,317,,,,,,2,4,2,2,apartment,Yes,2014,Within an hour,,"June 8, 2017",apartment,,,4,,Philidelphia
3962280ha,New Modern 5 Bedroom Home conveniently located close to center city,39.964284,-75.1456653,"North Philadelphia, Philadelphia, PA, USA",8,4.9,,1,,,,,2,12,5,4,house,Yes,2015,Within a day,80%,"May 18, 2017",house,,4000,12,,Philidelphia
4473260ha,"Luxury Loft in Center City, steps from Rittenhouse",39.95156189,-75.16991972,"Center City, Philadelphia, PA, USA",0,,248,,,,,,,5,1,1,apartment,Yes,2016,Within an hour,,"June 7, 2017",apartment,3,1200,5,,Philidelphia
4294279ha,Luxury Apartment in the Heart of Philadelphia    - One Bedroom - BST,39.955318,-75.168049,"Center City, Philadelphia, PA, USA",0,,208,,,,,,2,2,1,1,apartment,Yes,2016,Within an hour,,"June 8, 2017",apartment,,,2,,Philidelphia
980849,Mansion By Convention Center. Walk Everywhere,,,"North Philadelphia, Philadelphia, PA, USA",2,1.5,869,729,899,,199,8.0%,2,10,5,4,house,No,2016,Within a few days,50%,"April 14, 2017",house,,,,,Philidelphia
990363,Studio in heart of Old City,39.947212,-75.143974,"Center City, Philadelphia, PA, USA",0,,132,,,,,,,4,Studio,1,apartment,Yes,2014,Within an hour,,"June 7, 2017",apartment,,425,4,,Philidelphia
4047818ha,Philadelphia Home - Great Location and Amenities (Passyunk),39.9341031,-75.1607329,"South Philadelphia, Philadelphia, PA, USA",5,,292,350,,,125,8.0%,2,10,3,1,house,Yes,2015,Within a few hours,100%,"May 13, 2017",house,,2600,10,,Philidelphia
4055904ha,Newly Designed & Created Apt Mins From Center City,39.9789855,-75.1633764,"North Philadelphia, Philadelphia, PA, USA",5,,106,105,109,,99,,2,5,2,1,apartment,Yes,2014,Within an hour,90%,"June 7, 2017",apartment,1,,5,building,Philidelphia
879328,Luxury Apartment Near Independent Mall,39.9467483,-75.14670329,"Center City, Philadelphia, PA, USA",1,,165,165,190,,50,16.5%,2,2,1,,apartment,Yes,2016,Within an hour,90%,"May 25, 2017",apartment,3,1000,2,house,Philidelphia
4273626ha,Charming studio near Penn & Drexel University,39.95604,-75.210476,"West Philadelphia, Philadelphia, PA, USA",1,,90,90,95,,,8.0%,,2,Studio,1,apartment,Yes,2016,Within 2 days,90%,"June 6, 2017",apartment,1,,2,house,Philidelphia
4449569ha,"Bright, Sunny, Happy Place to Call Home in Philadelphia",,,"North Philadelphia, Philadelphia, PA, USA",0,,90,90,,,100,,2,5,2,1,apartment,Yes,2014,Within an hour,100%,"June 7, 2017",apartment,2,,5,,Philidelphia
1042096,Brand New Beautiful and Modern 2 Bedroom Apartment close to center city. Hot!!!,,,"South Philadelphia, Philadelphia, PA, USA",0,,150,150,,,60,8.0%,2,6,2,1,apartment,Yes,2016,Within a few hours,100%,"June 7, 2017",apartment,,,,,Philidelphia
3871860ha,"PARKING INCLUDED, 1500 FT, HIGH END CUSTOM 2BR 2BA DUPLEX, 20 FOOT CEILINGS",39.9434383,-75.1649579,"South Philadelphia, Philadelphia, PA, USA",2,,375,399,,,,,3,6,2,2,apartment,Yes,2011,Within a few days,40%,"June 6, 2017",apartment,3,1500,,,Philidelphia
739490,"Walking Distance from Rittenhouse, Museums and University City. Sleeps 8-10!",39.95837788,-75.17573747,"Center City, Philadelphia, PA, USA",0,,427,450,,,125,6.0%,2,10,3,2,house,No,2015,Within 2 days,100%,"April 17, 2017",house,,,10,,Philidelphia
891469,Center City Condo/ Sleeps 4/ Location Location Location,39.948281,-75.1734327,"Center City, Philadelphia, PA, USA",3,,450,450,,,125,15.0%,,4,2,1,condo,Yes,2015,Within 12 hours,100%,"June 5, 2017",condo,1,1200,,building,Philidelphia
915533,Whimsical 4bedroom Close To All Of The City Of Brotherly Love,39.969463,-75.146474,"North Philadelphia, Philadelphia, PA, USA",1,,295,295,,,,,2,6,4,1,house,No,2016,Within a day,100%,"May 26, 2017",house,,,,,Philidelphia
4431218ha,"Cheap and Quiet 3 Bedrm Apt in Downtown Philly - (Art Museum, Liberty Bell)",,,"Center City, Philadelphia, PA, USA",0,,249,249,,,100,15.5%,,6,3,1,apartment,No,2016,Within a few days,83%,"June 8, 2017",apartment,,,,,Philidelphia
778147,Full Private House In Philadelphia - Great Space & Price,39.98435,-75.163617,"North Philadelphia, Philadelphia, PA, USA",0,,106,109,124,,100,,2,5,2,1,house,Yes,2014,Within an hour,90%,"June 7, 2017",house,,,5,,Philidelphia
964348,Historic Center City Apartment,,,"Washington Square West, Philadelphia, PA, USA",0,,139,133,153,,90,15.0%,1,4,1,1,apartment,No,2015,Within a few days,75%,"May 31, 2017",apartment,,,,,Philidelphia
3956598ha,Prime Historic Location Of Philadelphia,39.93898511,-75.14541833,"South Philadelphia, Philadelphia, PA, USA",9,4.4,189,110,135,,75,15.5%,2,4,1,1,apartment,Yes,2014,Within an hour,100%,"June 7, 2017",apartment,1,850,4,building,Philidelphia
4288871ha,"Urban Lodge - Fishtown, Philadelphia",,,"North Philadelphia, Philadelphia, PA, USA",0,,224,215,235,,85,,4,5,2,2,house,Yes,2016,Within a day,100%,"May 19, 2017",house,,,,,Philidelphia
990361,Modern studio in Old City,39.951031,-75.148735,"Center City, Philadelphia, PA, USA",1,,144,,,,,,,4,Studio,1,apartment,Yes,2014,Within an hour,,"June 7, 2017",apartment,,430,4,,Philidelphia
3993590ha,Wonderful Family-Friendly Home In Historic Philadelphia,39.933194,-75.151877,"South Philadelphia, Philadelphia, PA, USA",2,,500,600,,,,,3,6,3,1,townhome,No,2015,Within a few days,60%,"June 23, 2016",townhome,,1300,6,,Philidelphia
4064492ha,Passyunk Square 2 Bedroom Near Broad Street Line,39.9347851,-75.1662875,"South Philadelphia, Philadelphia, PA, USA",8,4.4,107,120,,,60,,2,6,2,1,apartment,Yes,2015,Within 12 hours,80%,"May 5, 2017",apartment,1,1100,6,house,Philidelphia
820247,Entire 2BR Philadelphia home in the Penn/Drexel Area,39.965272,-75.190172,"West Philadelphia, Philadelphia, PA, USA",0,,189,175,225,,75,8.0%,2,6,2,1,house,Yes,2016,Within an hour,100%,"June 3, 2017",house,,,6,,Philidelphia
878006,Awesome 5 [2 or 3] bedroom by hospital & University of PA,39.95538075,-75.22257828,"West Philadelphia, Philadelphia, PA, USA",3,,200,225,350,,,10.0%,,5,2,1,house,Yes,2010,Within a few hours,100%,"June 3, 2017",house,,,5,,Philidelphia
4237766ha,Charming And Cozy Two Bedroom Apartment,40.026295,-75.081871,"Northeast Philadelphia, Philadelphia, PA, USA",3,4.7,91,85,100,,,8.0%,,6,2,1,apartment,Yes,2016,Within 12 hours,100%,"June 6, 2017",apartment,2,,6,house,Philidelphia
905631,Rittenhouse Square -Luxury And Spacious Apartment,39.94782,-75.173484,"Center City, Philadelphia, PA, USA",0,,165,165,190,,60,16.5%,2,3,1,1,apartment,Yes,2016,Within an hour,100%,"May 30, 2017",apartment,1,1000,3,building,Philidelphia
4281034ha,Sweet Place Near Drexel & Upenn,,,"West Philadelphia, Philadelphia, PA, USA",1,,95,95,,,,8.0%,,2,1,1,apartment,No,2016,,0%,"December 31, 2016",apartment,,,,,Philidelphia
4440432ha,Beautiful 2 Bedrooms Cozy&Hot!!! Free Parking,,,"South Philadelphia, Philadelphia, PA, USA",1,,100,100,,,30,14.2%,,4,2,1,house,Yes,2017,Within a few days,50%,"May 27, 2017",house,,,,,Philidelphia
1005741,Enchanting Center City Cottage in Midtown Village,39.94626932,-75.16203073,"Gayborhood, Philadelphia, PA, USA",7,,222,219,229,,,8.5%,,8,2,1,house,Yes,2017,Within an hour,100%,"June 7, 2017",house,,1250,,,Philidelphia
1056439,Beautiful Loft & Stage Area,39.9778948,-75.134719,"North Philadelphia, Philadelphia, PA, USA",0,,500,199,1,,299,8.0%,,16,5,2,apartment,Yes,2017,Within a few hours,100%,"June 7, 2017",apartment,2,4400,,,Philidelphia
709635,Stunning Home with Industrial Elegance in Beautiful Neighborhood- FREE PARKING,39.934317,-75.1644083,"South Philadelphia, Philadelphia, PA, USA",6,,701,875,890,,125,15.5%,2,7,3,1,house,Yes,2015,Within an hour,100%,"May 18, 2017",house,,1400,7,,Philidelphia
881743,"Charm And Cozy Apartment In Unversity City, Philadelphia, Close To Center City",39.95154609,-75.21244568,"West Philadelphia, Philadelphia, PA, USA",3,4.7,88,88,,,20,,,2,1,1,apartment,Yes,2016,Within an hour,100%,"June 7, 2017",apartment,1,200,,house,Philidelphia
4288882ha,"Urban Garden - Northern Liberties, Philadephia",,,"North Philadelphia, Philadelphia, PA, USA",0,,209,205,225,,85,,4,6,2,2,apartment,No,2016,Within a few hours,100%,"May 19, 2017",apartment,,,,,Philidelphia
952200,"Lovely 2  Bedroom Townhouse, Close To Rittenhouse And Center Ctiy Philadelphia",,,"South Philadelphia, Philadelphia, PA, USA",4,4.3,145,145,,,45,,,5,3,1,townhome,Yes,2016,Within an hour,100%,"June 7, 2017",townhome,,780,,house,Philidelphia
4460537ha,Enchanting Center City Cottage In Midtown Village,39.946294,-75.16202,"Gayborhood, Philadelphia, PA, USA",2,,223,219,229,,49,8.5%,,8,2,1,house,Yes,2017,,,"June 7, 2017",house,,1250,,,Philidelphia
1008749,Beautiful family celebration home close to transportation,,,"Glenside, PA, USA",0,,450,450,,,300,6.0%,3,9,4,3,house,No,2017,,,"June 7, 2017",house,,,,,Philidelphia
1069650,Spacious & Nice 1BR Apartment On Broad Street In Passyunk Square Near Downtown!!,,,"South Philadelphia, Philadelphia, PA, USA",0,,114,119,,,35,8.0%,2,4,1,1,apartment,No,2016,Within an hour,100%,"June 7, 2017",apartment,,,,,Philidelphia
778120,New Modern Spacious Apt Close To Center City - & All Tourist Points,39.9789855,-75.1633764,"North Philadelphia, Philadelphia, PA, USA",1,,108,104,119,,100,,2,5,2,1,apartment,Yes,2014,Within a few hours,90%,"June 7, 2017",apartment,1,,5,building,Philidelphia
812085,Relaxing 2BR Retreat in the Art Museum district of Philadelphia,39.9709689,-75.182177,"North Philadelphia, Philadelphia, PA, USA",0,,150,150,175,,,,4,6,2,1,townhome,Yes,2016,Within an hour,100%,"May 29, 2017",townhome,,,6,,Philidelphia
911527,Private parkin2 br apt next Upenn Drexel 10 mins to downtown close to Everything,39.95360341,-75.21052717,"West Philadelphia, Philadelphia, PA, USA",2,,130,109,139,,,15.5%,,6,2,,apartment,Yes,2016,Within an hour,100%,"June 8, 2017",apartment,3,160,6,house,Philidelphia
996638,Newly Created Traditional w Modern Touches by Temple University,,,"North Philadelphia, Philadelphia, PA, USA",0,,153,149,,,100,,2,8,4,1,apartment,Yes,2014,Within an hour,100%,"June 7, 2017",apartment,2,,8,building,Philidelphia
4473360ha,The Perfect Center City Penthouse!,39.951328,-75.169975,"Center City, Philadelphia, PA, USA",1,,302,,,,,,,6,2,2,apartment,Yes,2016,Within an hour,,"June 7, 2017",apartment,,2100,6,,Philidelphia
1054658,Cozy Home Away from Home,,,"Southwest Philadelphia, Philadelphia, PA, USA",0,,149,100,,,50,8.0%,2,6,2,1,apartment,Yes,2017,Within a few hours,100%,"June 4, 2017",apartment,2,,,house,Philidelphia
4242243ha,Entire Floor2 Bedroom apartment Ideally Located In Northern Liberties,39.971676,-75.1460649,"North Philadelphia, Philadelphia, PA, USA",1,,129,200,,,,8.0%,,4,2,1,condo,Yes,2016,Within a few days,80%,"June 2, 2017",condo,3,1300,4,building,Philidelphia
4276376ha,910 Cherry St. Unit#701 Stylish 3br/2ba Condo Near Pa Conv. Ctr & Hist District,39.954114,-75.155129,"Center City, Philadelphia, PA, USA",1,,369,369,399,,159,28.0%,,10,3,2,condo,Yes,2016,Within an hour,100%,"June 8, 2017",condo,7,1150,10,building,Philidelphia
3954775ha,BEAUTIFUL 3 STORY 1900'S STONE HOME,40.05756,-75.1340139,"North Philadelphia, Philadelphia, PA, USA",0,,650,650,,,,15.5%,2,10,5,3,house,No,2016,Within 12 hours,100%,"May 2, 2017",house,,,,,Philidelphia
987081,The apartment is conveniently located near the city's central subway system,,,"West Philadelphia, Philadelphia, PA, USA",0,,130,130,,,50,14.2%,,4,2,1,apartment,No,2016,Within a few days,70%,"June 7, 2017",apartment,,,,,Philidelphia
4505803ha,Spacious & Modern 2BR in Hip Fishtown,,,"North Philadelphia, Philadelphia, PA, USA",0,,167,130,,,75,8.0%,2,5,2,1,apartment,Yes,2017,Within 2 days,100%,"June 5, 2017",apartment,0,1250,,house,Philidelphia
1069001,"University City - 6 Bedroom House w/Backyard, super convenient!",,,"West Philadelphia, Philadelphia, PA, USA",0,,400,400,,,100,7.0%,,14,6,2,house,No,2017,,,"June 4, 2017",house,,,,,Philidelphia
961561,Sunny 3BR Apartment-Off of Busy Baltimore Avenue,,,"West Philadelphia, Philadelphia, PA, USA",0,,250,250,,,50,8.5%,,10,3,1,apartment,No,2016,Within a few days,70%,"May 14, 2017",apartment,,,,,Philidelphia
4469879ha,Charming 1 bedroom near Rittenhouse,39.9505003,-75.1760294,"Center City, Philadelphia, PA, USA",0,,77,70,95,,10,10.0%,,2,1,1,apartment,Yes,2017,,0%,"May 27, 2017",apartment,13,,2,building,Philidelphia
990362,Cozy studio in Old City,39.947449,-75.1474,"Center City, Philadelphia, PA, USA",0,,134,,,,,,,4,Studio,1,apartment,Yes,2014,Within an hour,,"June 7, 2017",apartment,,425,4,,Philidelphia
4561805ha,One private bedroom and bathroom in luxury building in center city Philadelphia,,,"Center City, Philadelphia, PA, USA",0,,111,120,,,,10.0%,,2,2,2,apartment,Yes,2017,Within a few hours,100%,"June 6, 2017",apartment,17,1700,,building,Philidelphia
4473362ha,Gorgeous Old City Penthouse w/Private Roof Deck,39.948441,-75.143394,"Center City, Philadelphia, PA, USA",0,,484,,,,,,,10,3,3,apartment,Yes,2016,Within an hour,,"June 7, 2017",apartment,,4000,10,,Philidelphia
4557511ha,The Center City Bainbridge Place,,,"South Philadelphia, Philadelphia, PA, USA",0,,95,95,,,50,,1,5,2,1,apartment,Yes,2017,Within a few hours,100%,"June 6, 2017",apartment,3,,,building,Philidelphia
926945,"2 Bedroom House in New Bold, Philadelphia",39.9291374,-75.1747836,"South Philadelphia, Philadelphia, PA, USA",0,,89,110,,,35,8.2%,5,4,2,1,house,Yes,2016,Within a day,90%,"June 8, 2017",house,,700,,,Philidelphia
4473363ha,Stylish 2BD Loft in the Heart of Old City,39.950642,-75.144745,"Center City, Philadelphia, PA, USA",0,,317,,,,,,,6,2,2,apartment,Yes,2016,Within an hour,,"June 7, 2017",apartment,,1300,6,,Philidelphia
1046626,Private Modern Apartment - Minutes From Philadelphia - Parking Included,39.934286,-75.268861,"Lansdowne, PA, USA",1,,67,65,75,,55,6.0%,2,2,1,1,apartment,Yes,2017,,,"June 1, 2017",apartment,2,500,,house,Philidelphia
741189,"Lovely Ultra Modern 3 Bedroom, 2.5 Bath Townhouse In South Philly",39.9350888,-75.172118,"South Philadelphia, Philadelphia, PA, USA",1,,650,650,,,,8.0%,,8,3,2,townhome,Yes,2015,Within 12 hours,90%,"May 27, 2017",townhome,,,8,,Philidelphia
1041650,Carpenter Street Zen House (2 bed + 2 bonus rooms/1 bath),39.9381417,-75.1607255,"South Philadelphia, Philadelphia, PA, USA",0,,195,189,209,,89,8.5%,2,6,2,1,house,Yes,2016,,,"June 8, 2017",house,,,,,Philidelphia
730703,Updated Victorian in Popular Manayunk/Roxborough,40.029778,-75.212412,"Northwest Philadelphia, Philadelphia, PA, USA",0,,571,,,,,8.0%,6,8,4,1,house,No,2015,Within a few days,50%,"July 16, 2016",house,,,8,,Philidelphia
4496593ha,Bridgestreet at the Arch - One Bedroom - BST,39.955318,-75.168049,"Center City, Philadelphia, PA, USA",0,,208,,,,,,2,2,1,1,apartment,Yes,2014,Within an hour,,"June 8, 2017",apartment,,,2,,Philidelphia
1067119,Historic Rowhome Minutes Walk To Center City/Parkway,,,"North Philadelphia, Philadelphia, PA, USA",0,,160,169,,,35,15.5%,2,6,3,2,condo,Yes,2017,Within an hour,100%,"June 8, 2017",condo,1,1000,,building,Philidelphia
1078451,10min to Center City. Right next to Temple Campus. Your Dream House!/1,,,"North Philadelphia, Philadelphia, PA, USA",0,,71,60,,,25,6.0%,,3,1,1,apartment,No,2017,,,"June 8, 2017",apartment,,,,,Philidelphia
510626,"Petite Hotel, Lodging",40.0229644,-75.2142612,"Roxborough-Manayunk, Philadelphia, PA, USA",2,,292,350,,,,7.0%,2,4,2,2,hotel,No,2012,Within 12 hours,90%,"March 5, 2017",hotel,2,1500,4,,Philidelphia
4505174ha,Enchanting Center City Cottage in Midtown Village,,,"Gayborhood, Philadelphia, PA, USA",0,,223,219,229,,49,8.5%,,7,2,1,house,No,2017,,,"June 7, 2017",house,,1250,,,Philidelphia
4548083ha,Luxury Locust Bedroom Apartment with Indoor Rooftop Pool    - Luxury 1 Bedroom Apartment,39.948347,-75.166649,"Center City, Philadelphia, PA, USA",0,,264,,,,,,2,3,1,1,apartment,Yes,2014,Within a day,,"June 8, 2017",apartment,,,3,,Philidelphia
4585279ha,University Cozy Stay,39.9460539,-75.2142932,"West Philadelphia, Philadelphia, PA, USA",0,,125,125,,,25,,,3,1,1,apartment,Yes,2017,,,"June 7, 2017",apartment,,,,,Philidelphia
4503310ha,Renovated 3 Bedroom Apartment in Port Richmond,39.981918,-75.107071,"North Philadelphia, Philadelphia, PA, USA",0,,115,,,,,,,8,3,1,apartment,Yes,2016,Within an hour,,"June 7, 2017",apartment,,1000,8,,Philidelphia
4539969ha,Spacious 4BRs Home- Walking To City,,,"South Philadelphia, Philadelphia, PA, USA",0,,193,255,,,80,,3,8,4,2,house,No,2017,,,"June 8, 2017",house,,,,,Philidelphia
4526561ha,"Large , Cool, room in hip, trendy Manayunk",40.0232504,-75.2154704,"Roxborough-Manayunk, Philadelphia, PA, USA",0,,75,75,,,20,,2,2,1,1,townhome,No,2017,,,"June 8, 2017",townhome,,,,,Philidelphia
4288677ha,Spacious & Sunny 3BR/2BA With Dual Sundecks Near PA Convention Center,,,"Center City, Philadelphia, PA, USA",0,,343,369,399,,169,28.0%,,10,3,2,condo,Yes,2016,Within an hour,100%,"June 8, 2017",condo,5,1150,10,building,Philidelphia
741471,"4BR, 2BA Bed & Breakfast",39.92993991,-75.17342074,"South Philadelphia, Philadelphia, PA, USA",0,,600,600,,,250,,5,7,4,2,apartment,No,2015,Within a few days,50%,"April 21, 2017",apartment,,,7,,Philidelphia
4194655ha,Spacious Rowhome - Short Walk To Center City/bars/restaurants,39.9371706,-75.1795894,"South Philadelphia, Philadelphia, PA, USA",0,,300,300,,,60,16.0%,,5,2,2,townhome,Yes,2016,Within a few days,90%,"June 4, 2017",townhome,,,5,,Philidelphia
1029216,Brand New High End 2 Bedroom Apartment Close to Center city & Sports centers,,,"South Philadelphia, Philadelphia, PA, USA",0,,,159,,,60,8.0%,2,7,2,1,apartment,Yes,2016,,,"June 7, 2017",apartment,,,,,Philidelphia
740565,Spacious 3BR Home In Philadelphia For Pope Visit,39.925441,-75.1631631,"South Philadelphia, Philadelphia, PA, USA",1,,357,420,,,,8.5%,3,7,3,1,house,Yes,2015,Within a few days,40%,"May 9, 2017",house,,1200,7,,Philidelphia
748288,Beautiful Apartment Rental,39.971983,-75.175271,"North Philadelphia, Philadelphia, PA, USA",0,,429,500,,,,,4,6,1,1,apartment,Yes,2015,Within a few days,25%,"July 2, 2016",apartment,1,,6,house,Philidelphia
954063,"Wood Extend Stay (Brand New 1Br with living Sofa Bed, with free parking)",,,"North Philadelphia, Philadelphia, PA, USA",0,,115,115,,,49,12.0%,,1,1,1,apartment,Yes,2016,Within an hour,100%,"December 13, 2016",apartment,,7000,,building,Philidelphia
745158,"Modern Philly Condo - Parking, Walkable, Pet-Friendly",40.028807,-75.221564,"Roxborough-Manayunk, Philadelphia, PA, USA",1,,117,125,,,,,,4,1,1,condo,No,2015,Within a few days,90%,"November 3, 2016",condo,,,4,,Philidelphia
4279002ha,Spacious Warehouse Loft w/ Gated Parking,39.9609333,-75.1584982,"Center City, Philadelphia, PA, USA",0,,83,,,,250,15.5%,90,2,1,1,condo,Yes,2016,Within a few days,90%,"March 8, 2017",condo,4,1100,2,building,Philidelphia
1076294,Cozy Studio In Univ Of Pennsylvania & Drexel,39.9625709,-75.19225,"West Philadelphia, Philadelphia, PA, USA",0,,155,110,,,30,6.0%,,4,1,1,studio,No,2017,Within a few hours,100%,"June 7, 2017",studio,,,,,Philidelphia
4025833ha,Family Rental For Pope Visit,39.973684,-75.210816,"West Philadelphia, Philadelphia, PA, USA",0,,533,639,,,,,3,8,3,2,house,No,2015,Within a few days,14%,"July 18, 2016",house,,,8,,Philidelphia
4517652ha,Clean and Cozy Apartment,,,"Southwest Philadelphia, Philadelphia, PA, USA",0,,138,100,,,50,8.0%,2,6,2,1,apartment,Yes,2017,Within a day,100%,"June 4, 2017",apartment,2,,,house,Philidelphia
1009813,3-Story Entire House in Center City,,,"North Philadelphia, Philadelphia, PA, USA",0,,828,799,899,,150,8.5%,2,22,5,4,house,Yes,2017,Within 2 days,87%,"May 30, 2017",house,,,,,Philidelphia
4248319ha,Spacious 3 Bedroom House In The Heart of Fishtown in Philadelphia,39.97121,-75.1315879,"North Philadelphia, Philadelphia, PA, USA",0,,895,1,1,,,,5,7,3,3,townhome,No,2016,Within 2 days,100%,"April 14, 2017",townhome,,,7,,Philidelphia
4016750ha,Ultimate Urban Living,39.969995,-75.132181,"North Philadelphia, Philadelphia, PA, USA",0,,900,900,,,,,7,10,4,3,house,Yes,2015,Within 2 days,80%,"July 11, 2016",house,,2700,10,,Philidelphia
4549768ha,New Stunning Sunny 2 Bdrm Apartment Mins to Center City,,,"North Philadelphia, Philadelphia, PA, USA",0,,124,119,,,100,,2,7,2,1,apartment,Yes,2014,,,"June 7, 2017",apartment,3,,,building,Philidelphia
892413,Perfect Location for the DNC,39.9139708,-75.1776347,"South Philadelphia, Philadelphia, PA, USA",0,,,1,,,,,4,6,3,1,house,No,2016,,,"July 13, 2016",house,,,6,,Philidelphia
4547248ha,Beautiful and relaxing homebase to Philadelphia and its surroundings,,,"Huntingdon Valley, Bryn Athyn, PA, USA",0,,500,500,,,120,,4,10,5,4,house,Yes,2017,,,"June 7, 2017",house,,,,,Philidelphia
1067445,"3 Bedroom Single Home in the Heart of Bala Cynwyd, suburb of Philadelphia, PA",,,"Roxborough, Philadelphia, PA, USA",0,,115,125,,,40,,2,3,3,2,house,No,2017,,,"June 1, 2017",house,,,,,Philidelphia
752003,Beautiful 3br 1.5ba Rowhouse Only 3 Blocks from Art Museum,39.9714691,-75.1786096,"North Philadelphia, Philadelphia, PA, USA",0,,571,750,,,100,,3,6,3,1,townhome,Yes,2015,,,"August 26, 2015",townhome,,,6,house,Philidelphia
744749,Luxury Modern Three Bedroom Townhouse,39.9370716,-75.1544371,"South Philadelphia, Philadelphia, PA, USA",0,,,1,,,,,5,6,3,3,house,No,2015,Within a few days,70%,"July 30, 2015",house,,,6,,Philidelphia
4559350ha,SHARED SPACE -you have Private BED/BATH/ROOFDECK,,,"North Philadelphia, Philadelphia, PA, USA",0,,78,75,85,,25,8.0%,,2,1,1,condo,No,2017,,,"May 27, 2017",condo,,,,,Philidelphia
1078531,Beautiful New Private Open Style Stunning 2 Bedroom Apt,,,"North Philadelphia, Philadelphia, PA, USA",0,,132,129,,,100,,2,7,2,1,apartment,Yes,2014,,,"June 7, 2017",apartment,3,,,building,Philidelphia
4570596ha,Extravagant!  Roof Deck! Free Parking! Sleeps 2-16!,,,"South Philadelphia, Philadelphia, PA, USA",0,,350,300,500,,135,15.5%,1,16,6,3,house,Yes,2017,,,"June 8, 2017",house,,3500,,,Philidelphia
3995918ha,"Clean, comfortable, and convenient home in Philadelphia",40.024338,-75.2183979,"Manayunk, Philadelphia, PA, USA",0,,350,350,,,,8.0%,2,5,2,1,house,Yes,2015,Within a few days,50%,"November 29, 2016",house,,,5,,Philidelphia
4572235ha,New construction modern work art - business/family oasis,,,"North Philadelphia, Philadelphia, PA, USA",0,,,140,,,200,8.0%,180,9,3,3,townhome,No,2017,,,"May 29, 2017",townhome,,,,,Philidelphia
4590197ha,Italian Market Trinity,39.9383074,-75.157317,"South Philadelphia, Philadelphia, PA, USA",0,,203,225,,,75,8.0%,3,6,2,2,house,Yes,2017,,,"June 5, 2017",house,,1400,,,Philidelphia
4563918ha,3 BR 1.5 Ba 2 story townhome Manayunk Roxborough Philadelphia full kitchen A/C,,,"Roxborough-Manayunk, Philadelphia, PA, USA",0,,149,149,,,120,,3,8,3,1,house,No,2016,,,"June 8, 2017",house,,,,,Philidelphia
4474498ha,Art Museum Area Room1-Prime Location-Great Value,,,"Northwest Philadelphia, Philadelphia, PA, USA",0,,863,863,,,,,,2,1,1,house,No,2017,,,"February 25, 2017",house,,,,,Philidelphia
4474612ha,"Chic PRVT Rm, 10min to Center City4",,,"Northeast Philadelphia, Philadelphia, PA, USA",0,,849,849,,,,,,2,1,1,house,No,2017,,,"February 25, 2017",house,,,,,Philidelphia
4021293ha,"3 Bd/2.5 Ba Pope Visit, 10 Min Walk To Pope",39.9717637,-75.169386,"North Philadelphia, Philadelphia, PA, USA",0,,,1,,,,,5,10,3,3,house,No,2015,,,"August 13, 2015",house,,,10,,Philidelphia
1031953,"Big, Bright Family-Friendly Townhouse w/ Roofdeck!",,,"South Philadelphia, Philadelphia, PA, USA",0,,129,,,,100,,7,6,4,2,townhome,No,2017,,,"June 3, 2017",townhome,,2000,6,,Philidelphia
4586647ha,Elegant 1 bedroom with 5 star amenities,,,"North Philadelphia, Philadelphia, PA, USA",0,,200,200,,,,,,2,1,1,apartment,No,2017,,,"June 8, 2017",apartment,,,,,Philidelphia
1006198,"Victoria, Lovely Private Studio Walking to Upenn, Off Street Parking, Back Yard",,,"West Philadelphia, Philadelphia, PA, USA",0,,88,88,,,25,,,3,1,1,apartment,No,2016,,,"June 7, 2017",apartment,,,,,Philidelphia
1095516,Big Neat & Clean and Great Location,40.019597,-75.207045,"Roxborough-Manayunk, Philadelphia, PA, USA",0,,111,139,,,25,,3,4,5,3,house,No,2017,,,"June 6, 2017",house,,,,,Philidelphia
4026094ha,Pope visit.  Room for rent in beautiful downtown townhome,39.9456238,-75.1761577,"Center City, Philadelphia, PA, USA",0,,600,600,,,,,2,2,1,1,townhome,No,2015,,,"August 22, 2015",townhome,4,2300,,,Philidelphia
4540801ha,211 Camac St.  #701B,,,"Center City, Philadelphia, PA, USA",0,,300,329,379,,169,18.5%,,10,3,2,condo,No,2016,,,"June 8, 2017",condo,,,,,Philidelphia
1042117,"Walk to Main St, Manayunk. Bike to Center City Philadelphia!",40.020531,-75.214468,"Northwest Philadelphia, Philadelphia, PA, USA",0,,122,122,,,50,,,6,1,1,apartment,Yes,2017,,,"April 19, 2017",apartment,1,850,,house,Philidelphia
4017237ha,Cozy Family Home in Mt. Airy,40.070208,-75.16859,"North Philadelphia, Philadelphia, PA, USA",0,,714,835,,,,8.0%,6,8,3,2,house,Yes,2015,,,"August 25, 2015",house,,,8,,Philidelphia
1078433,10 Min To Center City - Privatge Room/2,,,"North Philadelphia, Philadelphia, PA, USA",0,,102,86,,,25,6.0%,,3,1,1,apartment,Yes,2017,,,"June 7, 2017",apartment,3,,,building,Philidelphia
4430095ha,New 3 Story Townhouse with Rooftop Deck & Philly Skyline Views & Private Patio!,39.92852306,-75.15217216,"South Philadelphia, Philadelphia, PA, USA",0,,314,350,,,100,8.0%,3,9,3,2,townhome,Yes,2017,,,"April 19, 2017",townhome,,2000,,house,Philidelphia
753029,Rowhome Rental Roxborough w SEPTA Passes - Papal Visit World Meeting of Families,40.030068,-75.209477,"Roxborough-Manayunk, Philadelphia, PA, USA",0,,429,,,,,,7,6,3,2,townhome,No,2015,,,"August 26, 2015",townhome,,,6,,Philidelphia
730580,Beautiful Private 1brm- Papal Visit,39.95905586,-75.17447451,"Center City, Philadelphia, PA, USA",0,,,1,,,,20.0%,5,2,1,1,apartment,No,2015,,,"June 22, 2015",apartment,,,2,,Philidelphia
898541,Quite Studio on Penn's Safe Campus,39.953968,-75.20919908,"Spruce Hill, Philadelphia, PA, USA",0,,79,79,99,,30,16.6%,,2,1,1,apartment,Yes,2016,Within a few hours,100%,"June 8, 2017",apartment,3,,2,building,Philidelphia
755178,2 Br/2 Ba Condo. W/Parking,39.9557417,-75.1453784,"Center City, Philadelphia, PA, USA",0,,,,,,,,180,4,2,2,condo,No,2015,,,"September 8, 2015",condo,1,700,4,building,Philidelphia
4013526ha,Papal  Visit  Rental,39.9305587,-75.197292,"South Philadelphia, Philadelphia, PA, USA",0,,,1,,,,,5,6,3,2,house,No,2015,,,"July 26, 2015",house,,,6,,Philidelphia
681698,3 Story Townhouse Walking/Biking Distance To Pope Visit Location. + Gar. Parking,40.0126686,-75.1984736,"Roxborough-Manayunk, Philadelphia, PA, USA",0,,500,600,,,,,4,8,2,3,townhome,Yes,2015,Within a few days,60%,"July 21, 2015",townhome,2,2000,8,building,Philidelphia
750528,Apartment on the River for Papal Visit,40.0095502,-75.1951817,"Roxborough-Manayunk, Philadelphia, PA, USA",0,,833,1,1,,125,,2,5,2,1,apartment,Yes,2015,Within a few days,12%,"August 17, 2015",apartment,1,,5,house,Philidelphia
743685,4Bdrm/5Bath Avail For Pope Visit To Philadelphia,39.935438,-75.146375,"South Philadelphia, Philadelphia, PA, USA",0,,,5,,,300,,4,12,4,5,townhome,No,2015,Within a few days,30%,"July 28, 2015",townhome,,,12,,Philidelphia
3994345ha,Charming Single Home on the Philadelphia Main Line,39.983389,-75.27444,"Penn Wynne, Wynnewood, PA, USA",0,,571,600,,,,,3,5,3,2,house,Yes,2015,Within a few days,20%,"July 3, 2015",house,,1800,5,,Philidelphia
742222,"Convenient So.Philly 4BR, 2BA, 2 Floor Apt. Bread & Breakfast for Papal Visit",39.9299802,-75.1748388,"South Philadelphia, Philadelphia, PA, USA",0,,,1,,,250,,5,10,4,2,house,Yes,2015,Within a few days,50%,"April 19, 2017",house,,800,10,,Philidelphia
3969580ha,Massive 1400 Sf Art Museum Condo .7 Miles from Art Museum Steps!,39.9643003,-75.170516,"North Philadelphia, Philadelphia, PA, USA",0,,,1,,,,3.0%,4,3,1,1,condo,Yes,2015,Within a few days,28%,"June 16, 2015",condo,,1400,3,,Philidelphia
973329,"Neat studio on UPenn's Campus, Safe and convenient",,,"University City, Philadelphia, PA, USA",0,,89,89,,,20,16.6%,,3,1,1,apartment,No,2016,,,"June 8, 2017",apartment,,,,,Philidelphia
4561362ha,Stylish Loft Oasis in Port Richmond,39.983852,-75.102654,"North Philadelphia, Philadelphia, PA, USA",0,,403,,,,,,,8,2,1,apartment,Yes,2016,Within an hour,,"June 7, 2017",apartment,,1000,8,,Philidelphia
4561364ha,Cozy 2BD with Patio in the Heart of Port Richmond,39.983986,-75.102905,"North Philadelphia, Philadelphia, PA, USA",0,,327,,,,,,,7,2,1,apartment,Yes,2016,Within an hour,,"June 7, 2017",apartment,,950,7,,Philidelphia
4035240ha,Pope Visit 3 Day Rental,39.9328665,-75.17814619,"South Philadelphia, Philadelphia, PA, USA",0,,,2,,,,,2,4,3,2,house,No,2015,Within a few days,20%,"September 18, 2015",house,,,4,,Philidelphia
4031133ha,Come See The Pope In Philadelphia!,39.944813,-75.223177,"Southwest Philadelphia, Philadelphia, PA, USA",0,,667,1,,,,8.5%,3,8,2,2,house,No,2015,Within a few days,20%,"August 31, 2015",house,,,8,,Philidelphia
3975836ha,Homebase for Democratic National Convention!,39.970095,-75.17058,"North Philadelphia, Philadelphia, PA, USA",0,,,1,,,200,,2,10,3,3,house,Yes,2015,Within a few days,40%,"July 20, 2016",house,,1650,10,,Philidelphia
4033696ha,Charming Victorian 2 Blocks From The Septa Train To Center City Philadelphia,40.092889,-75.130108,"Jenkintown, PA, USA",0,,583,800,,,,,,4,2,1,house,No,2015,Within a few days,33%,"September 2, 2015",house,,,4,,Philidelphia
680727,Fairmount/Art Museum - 2br/2ba available 9/24-9/28,39.966544,-75.1698739,"North Philadelphia, Philadelphia, PA, USA",0,,,4,,,,6.0%,2,4,2,2,condo,No,2015,Within a few days,14%,"July 23, 2015",condo,,,4,,Philidelphia
3871863ha,22 AND MARKET DOORMAN BUILDING,39.954277,-75.176122,"Center City, Philadelphia, PA, USA",2,,318,349,,,,,3,6,2,1,apartment,No,2011,Within a few days,80%,"June 2, 2017",apartment,6,1250,,building,Philidelphia
703268,Pope World Families Town Home Walking Distance To Parkway,39.9773068,-75.18706288,"North Philadelphia, Philadelphia, PA, USA",0,,,,,,,,2,4,2,2,townhome,No,2015,,0%,"June 14, 2015",townhome,,,4,,Philidelphia
734033,1br New Construction Near Art Museum,39.96670744,-75.16159017,"North Philadelphia, Philadelphia, PA, USA",0,,857,1,,,70,8.5%,4,4,1,1,apartment,No,2015,,0%,"June 29, 2015",apartment,,,4,,Philidelphia
3996311ha,Great Family House for World Meeeting of Families and Pope Visit,39.971748,-75.168415,"North Philadelphia, Philadelphia, PA, USA",0,,,1,,,,,5,8,3,2,house,No,2015,,0%,"July 9, 2015",house,,,8,,Philidelphia
3997767ha,"Bi-level 1 Bedroom W/den - Full Bar, Jacuzzi, Stainless, Granite",39.94069181,-75.17967625,"South Philadelphia, Philadelphia, PA, USA",0,,,2,,,,,3,5,1,2,condo,No,2015,,0%,"July 13, 2015",condo,,,5,,Philidelphia
745185,1 BED 1 BATH CONDO in NAVAL SQUARE for PAPAL VISIT- POPE VISIT TO PHILADELPHIA,39.94003177,-75.18761657,"South Philadelphia, Philadelphia, PA, USA",0,,500,500,,,,,,6,1,1,condo,No,2015,,0%,"August 3, 2015",condo,,,6,,Philidelphia
4020717ha,Join Us For The Pope's Visit To Philadelphia!,39.9214979,-75.1657969,"South Philadelphia, Philadelphia, PA, USA",0,,,1,,,,,3,7,3,2,house,No,2015,,0%,"August 8, 2015",house,,,7,,Philidelphia
4023222ha,Modern Twin Home 10 Minute Walk From Where The Pope Is Staying,40.0002056,-75.2611439,"West Philadelphia, Philadelphia, PA, USA",0,,625,750,,,,,,12,3,1,house,Yes,2015,,0%,"August 17, 2015",house,,,12,,Philidelphia
751583,Sleep Across The Street From The Pope!,39.996274,-75.258466,"Overbrook, Philadelphia, PA, USA",0,,,3,5,,,6.0%,,16,6,1,house,No,2015,,0%,"August 20, 2015",house,,,,,Philidelphia
4025568ha,Sleep Across The Street From The Pope,39.996274,-75.258466,"Overbrook, Philadelphia, PA, USA",0,,,3,5,,,6.0%,,16,6,3,house,No,2015,,0%,"August 20, 2015",house,,,16,,Philidelphia
753466,Old City Apartment For Papal Visit - 1 Br / 1B W/ Pullout - Fantastic Location!,39.9524762,-75.14557,"Center City, Philadelphia, PA, USA",0,,550,550,,,,8.0%,2,4,1,1,apartment,No,2015,,0%,"June 20, 2016",apartment,,,4,,Philidelphia
3990671ha,Last Minute Housing For Papal Visit,39.984764,-75.248983,"West Philadelphia, Philadelphia, PA, USA",0,,,1,,,,,5,10,7,4,house,Yes,2015,,0%,"September 1, 2015",house,,,10,,Philidelphia
875814,2 Modern Studios in townhouse located in a great neighborhood. Luxury amenities,39.9363539,-75.1658919,"South Philadelphia, Philadelphia, PA, USA",1,,316,315,340,,130,14.5%,2,9,Studio,2,apartment,Yes,2015,Within 2 days,100%,"May 29, 2017",apartment,2,1000,9,house,Philidelphia
952622,Beautiful Modern House Across from Park,,,"South Philadelphia, Philadelphia, PA, USA",0,,175,175,,,100,,,2,3,2,house,No,2016,,0%,"May 6, 2017",house,,,,,Philidelphia
1037642,BRAND NEW Renovated Furnished Apartment in Downtown Center City !,,,"Gayborhood, Philadelphia, PA, USA",0,,70,70,,,50,8.0%,2,5,1,1,apartment,No,2017,Within a few days,20%,"May 4, 2017",apartment,,,,,Philidelphia
4602993ha,Private Historic Residence With Separate Cottage House/15ml from Philadelphia,,,"Fort Washington, PA, USA",0,,242,839,,,370,,2,12,7,4,house,No,2017,,,"June 7, 2017",house,,,,,Philidelphia
4061618ha,Charming Private Old Farmhouse - South Jersey,39.9799,-74.9044,"Moorestown, NJ, USA",11,4.6,200,200,,,,,,4,2,2,farmhouse,Yes,2015,Within an hour,100%,"June 7, 2017",farmhouse,,,4,,Philidelphia
612371,"Country Home & Studio/Pool House nestled in a 1,000 acre Nature Reserve",40.14461278,-75.07847852,"Huntingdon Valley, Bryn Athyn, PA, USA",13,,724,699,749,,125,3.07%,2,8,4,3,chateau / country house,Yes,2014,Within a few days,70%,"June 4, 2017",chateau / country house,,3500,8,,Philidelphia
842229,"King of Prussia Mall, Valley Forge Park, VF Casino, Philadelphia Expo, MainLine",40.095914,-75.361839,"King of Prussia, PA, USA",12,4.8,142,139,149,,,,2,7,3,2,apartment,Yes,2016,Within a few hours,100%,"May 24, 2017",apartment,2,1350,,house,Philidelphia
679749,Schuylkill River Trail,40.1196569,-75.379039,"West Norriton, PA, USA",8,3.8,229,229,275,,75,,2,10,4,3,house,Yes,2015,Within 2 days,100%,"June 4, 2017",house,,2028,10,,Philidelphia
987756,BlueWavePlace South NJ - 5BR near Philly,39.860126,-74.982941,"Voorhees Township, NJ, USA",3,4.3,184,,,,,,,10,5,3,house,Yes,2014,Within an hour,,"June 7, 2017",house,,2022,10,,Philidelphia
4032911ha,Sleeps 10 - 1 Mile From Train Station Into Center City,39.898079,-75.429188,"Media, PA, USA",10,,480,500,,,,,2,10,4,2,house,Yes,2015,Within 12 hours,100%,"June 8, 2017",house,,,,,Philidelphia
856236,"King of Prussia Mall, Valley Forge Park, VF Casino, Philadelphia Expo, MainLine,",40.0960332,-75.36209483,"King of Prussia, PA, USA",3,4.7,114,109,119,,,,2,5,2,1,apartment,Yes,2016,Within a few hours,100%,"June 5, 2017",apartment,1,900,,house,Philidelphia
961685,Three Bedroom Home with Office - New Construction,,,"Upper Darby, PA, USA",1,,,149,,,25,,2,6,2,2,house,No,2017,Within 12 hours,90%,"May 24, 2017",house,,,,,Philidelphia
4461563ha,2BR 1BA Cape Cod w/yard and shared driveway. 10 minute walk to train,39.91720153,-75.30198754,"Upper Darby, PA, USA",3,,99,105,,,,,,3,2,1,house,Yes,2017,Within 12 hours,100%,"June 8, 2017",house,,,,,Philidelphia
1007359,Antique Charm Meets Modern Comfort,,,"Conshohocken, PA, USA",1,,120,120,,,65,6.0%,2,6,2,1,house,No,2017,Within 2 days,88%,"June 8, 2017",house,,,,,Philidelphia
4436720ha,"Charming Main Line house in heart of Bryn Mawr, PA",40.023884,-75.324877,"Bryn Mawr, PA, USA",2,4.5,192,189,199,,60,6.0%,2,5,3,1,house,Yes,2017,Within a few hours,100%,"June 6, 2017",house,,1800,,,Philidelphia
4271533ha,Willow Bank Mansion *,40.034143,-75.302908,"Bryn Mawr, PA, USA",0,,428,475,,,195,6.0%,5,12,7,6,house,No,2017,Within a few days,90%,"June 4, 2017",house,,,,,Philidelphia
756817,Charming Private Farmhouse,39.9799,-74.9044,"Moorestown, NJ, USA",3,,200,200,,,,7.0%,,5,2,2,farmhouse,No,2015,Within 12 hours,90%,"June 6, 2017",farmhouse,,,5,,Philidelphia
4364747ha,Charming single family home near downtown Pitman and Rowan University,,,"Pitman, NJ, USA",0,,129,129,149,,90,,2,8,4,2,house,Yes,2016,Within an hour,100%,"June 8, 2017",house,,,,,Philidelphia
1006615,"Convenience, Comfort, And Zero Carbon",,,"Bridgeport, PA, USA",1,,100,100,,,40,6.0%,,5,2,1,apartment,Yes,2017,Within an hour,100%,"June 8, 2017",apartment,1,,5,house,Philidelphia
1024201,BlueWavePlace South NJ- 3 BR near Philly,39.959549,-75.053391,"Pennsauken, NJ, USA",0,,121,,,,,,,5,3,1,house,Yes,2014,Within an hour,,"June 7, 2017",house,,1248,5,,Philidelphia
882509,Very Lg Mstr Bdrm W/Pvt Bath Close To Devon Horse Show & Valley Forge Park,,,"Devon, PA, USA",0,,80,80,,,,,2,3,1,1,townhome,Yes,2016,Within a day,100%,"June 6, 2017",townhome,2,,3,house,Philidelphia
4357926ha,"Private 2BDR Suite w/ Bathroom in Horsham, PA",40.188344,-75.150474,"Horsham, PA, USA",0,,70,70,,,30,8.0%,2,6,2,1,apartment,Yes,2016,Within 12 hours,100%,"April 15, 2017",apartment,,,6,,Philidelphia
969432,"Private 2BDR Suite w/ Bathroom in Horsham, PA",,,"Horsham, PA, USA",1,,70,70,,,30,8.0%,2,6,2,1,apartment,Yes,2016,Within a day,87%,"May 28, 2017",apartment,,,6,,Philidelphia
286807ha,Main Line---'Executive' Mansion,,,"Villanova, PA, USA",10,4.9,900,900,,,,6.0%,4,10,5,5,estate,Yes,2010,Within a few days,40%,"May 8, 2017",estate,,8500,,,Philidelphia
876519,Main Line Manor House,40.0510762,-75.3119297,"Villanova, PA, USA",2,,,1,2,,1,,3,14,6,7,estate,Yes,2016,Within a day,100%,"June 7, 2017",estate,,10000,14,,Philidelphia
4251245ha,Visiting Faculty And Professional Athletes,39.8878686,-75.0559654,"Haddon Heights, NJ, USA",2,,495,495,,,165,,2,10,2,2,house,Yes,2015,Within an hour,100%,"May 6, 2017",house,,2500,10,,Philidelphia
1053305,BlueWavePlace South NJ - 10 min to Philly,39.961556,-75.06832,"North Philadelphia, Philadelphia, PA, USA",0,,109,,,,,,,6,3,2,house,Yes,2014,Within an hour,,"June 7, 2017",house,,1915,6,,Philidelphia
3943096ha,Your Home While Visiting With The Pope,39.9096314,-75.0803484,"Collingswood, NJ, USA",0,,199,199,,,100,,7,6,2,1,apartment,No,2015,,,"April 14, 2015",apartment,,,6,,Philidelphia
4045069ha,Upscale Suburban Home In Village Setting,39.915434,-75.040513,"Haddonfield, NJ, USA",0,,900,900,,,,,2,6,3,2,house,No,2015,Within 12 hours,80%,"June 1, 2017",house,,1700,6,,Philidelphia
3930326ha,Home In South Jersey - Walking Distance To PATCO,39.908951,-75.056503,"Haddon Township, NJ, USA",0,,,1,,,,,4,8,4,2,house,Yes,2015,Within a few days,40%,"January 9, 2017",house,,2300,8,,Philidelphia
4282447ha,Cute Little Home Away From Home!,39.903981,-75.307882,"Holmes, PA, USA",0,,200,225,,,100,9.0%,,7,2,1,house,Yes,2016,Within a few days,90%,"June 6, 2017",house,,,7,,Philidelphia
744167,"18 minutes to the Pope, Festival of Families, Convention center",39.919657,-75.062324,"Collingswood, NJ, USA",0,,900,900,,,,,2,6,2,1,house,No,2015,Within a few days,33%,"August 10, 2015",house,,,,,Philidelphia
4554442ha,Truly a Home away from home!,,,"Prospect Park, PA, USA",0,,83,85,,,50,6.0%,3,4,1,1,apartment,No,2017,,,"June 8, 2017",apartment,,,,,Philidelphia
755644,"Pope Visit, 2 bedroom Townhouse, close to train and stores",39.909131,-75.299526,"Glenolden, PA, USA",0,,416,416,,,,,6,4,2,1,townhome,Yes,2015,,,"September 2, 2015",townhome,,,4,,Philidelphia
4016783ha,Lovely House For Pope's Visit!,39.90677548,-75.08226816,"Oaklyn, NJ, USA",0,,,1,,,,,,10,5,2,house,No,2015,Within a few days,20%,"August 20, 2015",house,,,10,,Philidelphia
717185,Amazing family home in the suburbs for Papal Visit,39.971532,-75.306004,"Havertown, PA, USA",0,,700,700,,,250,,3,6,3,1,house,No,2015,Within a few days,42%,"June 16, 2015",house,,,6,,Philidelphia
4035446ha,Great Shared Suburb Home .Reasonable Prices,39.8793181,-75.1196213,"Brooklawn, NJ, USA",0,,175,175,,,,7.0%,,3,2,1,townhome,Yes,2015,Within a few days,10%,"February 15, 2017",townhome,2,,3,house,Philidelphia
745797,Apartment Available For Papal Visit - Train Tickets Included,39.901037,-75.335933,"Swarthmore, PA, USA",0,,214,,,,,,7,4,2,1,apartment,No,2015,,,"August 3, 2015",apartment,3,900,4,building,Philidelphia
3904517ha,Ppppppppppppppppppppp,39.885794,-75.351764,"Swarthmorewood, Woodlyn, PA, USA",0,,,2,,,,,5,10,4,2,house,No,2015,Within a few days,10%,"April 1, 2017",house,,,10,,Philidelphia
484781,Experience Everyone's Hometown Media PA. A Must See Property! Avail 10/01,39.9166207,-75.3957304,"Media, PA, USA",3,4.7,,,,,100,3.0%,180,2,2,1,apartment,Yes,2013,Within a few days,70%,"October 12, 2015",apartment,1,1000,2,building,Philidelphia
3925388ha,"""Home Away From Home"" During The Popes Visit To Philadelphia",40.147497,-75.208906,"Fort Washington, PA, USA",0,,357,450,,,200,,3,9,5,3,house,No,2015,Within a few days,30%,"May 8, 2017",house,,,9,,Philidelphia
4586727ha,Beautiful Waterfront Home On The Rancocas Creek (10 Miles From Philadelphia),,,"Delran, NJ, USA",0,,,1,,,120,,5,10,5,3,house,No,2017,,,"June 1, 2017",house,,,,,Philidelphia
1059884,"King of Prussia, 5 Bedroom house, 3 1/2 bath",40.095914,-75.361839,"King of Prussia, PA, USA",0,,232,225,250,,50,,2,10,5,3,house,Yes,2016,,,"May 24, 2017",house,,2250,,,Philidelphia
4023532ha,Cute Family Bungalow,39.9108329,-75.385165,"Upper Providence Township, PA, USA",0,,450,450,,,,,2,7,3,1,bungalow,Yes,2015,Within a few days,66%,"March 15, 2016",bungalow,,,7,,Philidelphia
4564580ha,Large 6 bedroom Colonial with inlaw suite near Rowan University,,,"Pitman, NJ, USA",0,,250,250,,,160,,3,16,7,2,house,No,2016,,,"June 8, 2017",house,,,,,Philidelphia
754791,One Week Available during Papal Visit,40.1468691,-75.3323818,"East Norriton, PA, USA",0,,714,750,,,,6.0%,5,8,2,2,townhome,Yes,2015,Within a few days,80%,"September 1, 2015",townhome,,,8,,Philidelphia
4512524ha,3 Bedroom home with pool,39.7539719,-75.363281,"Logan Township, NJ, USA",0,,250,300,,,25,12.0%,,5,3,1,house,Yes,2017,Within 12 hours,100%,"June 8, 2017",house,,1600,,,Philidelphia
1037820,Large Executive 3 Bedroom Townhouse,39.96134582,-75.49000183,"Edgmont, PA, USA",0,,257,325,,,30,6.0%,,6,3,2,townhome,Yes,2017,,,"May 20, 2017",townhome,,2400,,,Philidelphia
4433547ha,Furnished one bedroom studio unit with private entrance & parking,,,"Berwyn, PA, USA",0,,100,,,,,,7,2,1,1,studio,Yes,2017,Within a few days,50%,"January 4, 2017",studio,,600,,,Philidelphia
4115839ha,Entire House 4 Bedroom Close To Philadelphia,40.160097,-75.27126,"Blue Bell, PA, USA",0,,149,149,,,,6.0%,2,15,4,3,house,No,2016,Within a few days,37%,"May 12, 2016",house,,,15,,Philidelphia
901543,"Country Home On Large Lot With Built-In Pool, Perennial Garden, Vegetable Garden",39.711165,-75.266818,"South Harrison Township, NJ, USA",0,,289,316,,,,,3,4,2,1,chateau / country house,Yes,2016,Within a day,100%,"April 12, 2017",chateau / country house,,2500,4,,Philidelphia
4179878ha,Philadelphia With All Its Beauty,,,"Garnet Valley, PA, USA",0,,997,997,,,,10.0%,22,15,5,4,house,Yes,2015,Within an hour,100%,"June 4, 2017",house,,3000,15,,Philidelphia
630209,Wonderful House on a Lake,39.9136,-74.8852,"Evesham Township, NJ, USA",0,,714,1,,,,,,6,3,2,house,No,2014,,0%,"October 8, 2014",house,,,6,,Philidelphia
691255,World Meeting of Families - Great Location,40.070547,-75.316554,"West Conshohocken, PA, USA",0,,800,800,,,,,2,12,4,3,house,Yes,2015,,0%,"March 15, 2015",house,,,12,,Philidelphia
3995108ha,Beautiful Home in Suburbs of Philadelphia,39.989683,-75.2827949,"Penn Wynne, Wynnewood, PA, USA",0,,429,500,,,,7.0%,3,10,3,3,house,No,2015,Within a few days,10%,"February 24, 2017",house,,,10,,Philidelphia
4015003ha,"Main Line 4 BDR, 2.5BR Dutch Colonial Home - 1 Mile from King of Prussia",40.076289,-75.398829,"Wayne, PA, USA",0,,667,900,,,,5.0%,2,8,4,3,house,No,2015,,0%,"May 8, 2017",house,,,8,,Philidelphia
4028777ha,"Beautiful 3,200 SF, 4 BR Executive Home",39.713279,-75.085808,"Washington Township, NJ, USA",0,,850,850,,,,,5,10,4,2,house,Yes,2015,,0%,"September 17, 2015",house,,3200,10,,Philidelphia
4207537ha,"Home, Sweet Home My Delight",39.9728128,-74.8817647,"Mount Laurel, NJ, USA",0,,85,67,66,,,,,4,1,1,apartment,Yes,2016,,0%,"August 26, 2016",apartment,,,4,,Philidelphia
3871857ha,GORGEOUS HIGH END 3BR 2BA,39.9498395,-75.1681983,"Center City, Philadelphia, PA, USA",3,,500,500,,,,,3,12,3,2,apartment,Yes,2011,Within a few days,40%,"July 9, 2016",apartment,,2500,12,,Philidelphia
326207ha,Tyry's Extended Stay Accommodations/ Corporate Housing,40.0595664,-75.183035,"Northwest Philadelphia, Philadelphia, PA, USA",16,4.8,143,150,,,,8.0%,2,6,3,1,townhome,Yes,2008,Within 12 hours,100%,"May 27, 2017",townhome,,,6,,Philidelphia
894371,Beautiful Brownstone Home Located Just A Block Away From Rittenhouse Square!,39.9488816,-75.1736773,"Center City, Philadelphia, PA, USA",0,,120,,,,,,30,4,1,1,condo,Yes,2012,Within a day,100%,"November 15, 2016",condo,,515,4,building,Philidelphia
3916295ha,Gorgeous Condo in Merion Pa for Pope Francis visit to Philadelphia Pa,39.99646873,-75.25229666,"Overbrook, Philadelphia, PA, USA",0,,,,,,,,,8,3,2,condo,No,2015,Within an hour,100%,"May 15, 2015",condo,,,8,,Philidelphia
4020876ha,Beautiful Home Located In The Trendy Fairmount Area,39.96921471,-75.17001038,"North Philadelphia, Philadelphia, PA, USA",0,,,,,,175,,,6,3,2,house,No,2015,Within a few days,30%,"August 21, 2015",house,,,6,,Philidelphia
969278,Studio apartment close to Rittenhouse and the Theaters,39.9479893,-75.1682766,"Center City, Philadelphia, PA, USA",0,,250,250,,,,7.0%,,4,Studio,1,apartment,Yes,2012,Within an hour,100%,"March 19, 2017",apartment,4,500,4,building,Philidelphia
696923,2br - 2 Bedroom Apartment Available For Pope/papal Visit In Sep 2015,40.021932,-75.210948,"Northwest Philadelphia, Philadelphia, PA, USA",0,,,,,,,,,4,2,2,apartment,No,2015,Within a few days,20%,"March 29, 2015",apartment,,,4,,Philidelphia
3967385ha,"Pope Visit 2 Bedroom With Gym, Office, Patio, TV, Cable, Internet,Laundry",40.05778681,-75.23491723,"Roxborough-Manayunk, Philadelphia, PA, USA",0,,,,,,,,,5,2,1,apartment,Yes,2015,Within a few days,22%,"September 2, 2015",apartment,,,5,,Philidelphia
3912595ha,Best Spot For The Pope - Right On The Parkway Were The Pope Will Be Touring!!,39.96986892,-75.18190101,"North Philadelphia, Philadelphia, PA, USA",0,,,,,,,,,6,2,2,house,No,2015,,0%,"March 4, 2015",house,,,6,,Philidelphia
686515,Rental for 2015 Meeting of the World families Pope visit,39.97276756,-75.18368329,"North Philadelphia, Philadelphia, PA, USA",0,,,,,,,,,6,2,1,condo,No,2015,,0%,"March 1, 2015",condo,,,6,,Philidelphia
3930293ha,Group of 20+ Economy Hostel  Style Stay for World Meeting of Families/Pope Visit,39.9724026,-75.1261311,"North Philadelphia, Philadelphia, PA, USA",0,,,,,,,,,20,2,2,house,No,2015,,0%,"March 22, 2015",house,,2000,20,,Philidelphia
708034,World Meeting of Families in Phila.,39.963099,-75.164497,"North Philadelphia, Philadelphia, PA, USA",0,,,,,,,,,2,1,1,studio,No,2015,,0%,"April 27, 2015",studio,2,,2,building,Philidelphia
717068,"Papal Visit Rental - Cozy, Historic-Certified home in Washington Square",39.94365907,-75.15361011,"Washington Square West, Philadelphia, PA, USA",0,,,,,,,,,6,2,2,house,No,2015,,0%,"May 19, 2015",house,,,6,,Philidelphia
3995818ha,Large Home on Quiet Street 20 Minutes From Center City Philadelphia,40.00747,-75.231537,"Roxborough-Manayunk, Philadelphia, PA, USA",0,,,,,,,,,10,5,3,house,No,2015,,0%,"July 22, 2015",house,,,10,,Philidelphia
741320,Great Location - Logan Square Home Near Art Museum with Parking,39.9583808,-75.1757194,"Center City, Philadelphia, PA, USA",0,,,,,,,8.5%,,6,2,2,townhome,Yes,2015,,0%,"September 11, 2015",townhome,2,1600,6,,Philidelphia
4023148ha,Papal Visit/World Meeting Of Families Congress,40.0128689,-75.1947594,"Roxborough-Manayunk, Philadelphia, PA, USA",0,,,,,,150,,,6,3,2,house,No,2015,,0%,"August 20, 2015",house,,,6,,Philidelphia
762092,Home For Rent During Pope's Visit,40.047752,-75.146689,"Olney-Oak Lane, Philadelphia, PA, USA",0,,,,,,,,,3,4,3,house,No,2015,,0%,"September 21, 2015",house,,,3,,Philidelphia
292176ha,Brandywine Valley Cottage on Private Estate 30 Minutes Outside Philadelphia,39.90015629,-75.47470093,"Chester Heights, PA, USA",1,,283,350,350,,75,9.0%,2,4,2,1,cottage,Yes,2005,Within 2 days,90%,"January 12, 2017",cottage,,1000,4,,Philidelphia
740652,Papal Visit- Stay in colonial house that is home away from home and kid friendly,,,"Medford, NJ, USA",0,,,,,,,,,10,5,3,house,No,2015,,0%,"July 18, 2015",house,,,10,,Philidelphia
746412,Walk To Pope Festivities! No Septa + Free Parking In Residential Neighborhood!,39.94977,-75.125799,"Camden, NJ, USA",0,,,,,,250,,,10,3,3,townhome,Yes,2015,,0%,"August 25, 2015",townhome,,,10,,Philidelphia
4171881ha,Ground Floor 1BR Apt Near Drexel U,39.9625709,-75.19225,"West Philadelphia, Philadelphia, PA, USA",0,,56,49,,,,,7,2,1,1,apartment,Yes,2016,Within a day,100%,"June 8, 2017",apartment,0,,2,building,Philidelphia
818680,"Fabulous,Friendly, Convenient to Drexel. UP, HUP, All Center City attractions",39.9486887,-75.1799009,"Center City, Philadelphia, PA, USA",0,,147,,,,,,14,4,3,2,apartment,Yes,2016,Within a day,90%,"April 1, 2017",apartment,1,2300,4,house,Philidelphia
4044701ha,Three Individual Bedrms In A Beautiful Historical Italian Villa,40.037961,-75.181817,"Northwest Philadelphia, Philadelphia, PA, USA",0,,78,59,69,,90,15.0%,2,8,4,2,house,No,2015,Within a few hours,100%,"May 16, 2017",house,,,8,,Philidelphia
4210090ha,"Huge, Sunny, Newly Renovated Bi Level Apartment",39.93178,-75.154402,"South Philadelphia, Philadelphia, PA, USA",1,,257,300,,,160,8.5%,2,6,3,2,apartment,Yes,2016,Within a day,100%,"May 24, 2017",apartment,,1600,6,house,Philidelphia
4020031ha,"4 Br 2 Bath 2nd And 3rd Floor House For Family , Groups Or Individuals",40.0406869,-75.1863564,"Northwest Philadelphia, Philadelphia, PA, USA",1,,299,299,499,,,6.0%,,14,4,2,house,No,2015,Within an hour,100%,"May 23, 2017",house,,,14,,Philidelphia
4259550ha,Comfort & best location in Center City - walk to Rittenhouse & Convention Center,39.9472824,-75.1679142,"Center City, Philadelphia, PA, USA",4,,285,239,399,,50,,,6,2,2,apartment,No,2016,Within a day,80%,"May 26, 2017",apartment,,,,,Philidelphia
4484104ha,Scandinavian/minimal Townhouse in heart of City,,,"South Philadelphia, Philadelphia, PA, USA",2,4.5,180,180,,,45,8.0%,,6,3,3,townhome,No,2016,Within an hour,100%,"May 30, 2017",townhome,,,,,Philidelphia
4208032ha,Master Bedroom In Large Family Home Wynnewood Pa Usa,39.984326,-75.2764036,"Penn Wynne, Wynnewood, PA, USA",1,,47,55,,,,,,2,1,1,house,No,2016,Within a few days,50%,"May 13, 2017",house,,,2,,Philidelphia
4440481ha,Modern Basement Apartment,40.0468526,-75.2201571,"Roxborough-Manayunk, Philadelphia, PA, USA",1,,67,60,65,,35,8.0%,,6,3,1,house,Yes,2017,Within 12 hours,100%,"June 5, 2017",house,,600,6,house,Philidelphia
909966,Clean and Simple 2 Bedroom Loft Space,,,"Center City, Philadelphia, PA, USA",0,,139,139,,,50,16.5%,,5,2,1,apartment,No,2016,Within 12 hours,80%,"June 8, 2017",apartment,,,,,Philidelphia
744271,Charming Trinity near Rittenhouse Square,39.94509026,-75.17016011,"Center City, Philadelphia, PA, USA",7,4.7,143,170,,,75,8.0%,2,3,1,1,house,Yes,2015,Within 12 hours,100%,"June 8, 2017",house,,760,3,,Philidelphia
3809125ha,"2 Br, 2 Ba Spacious Luxury Apartment In Historic Old City",39.9497397,-75.1445806,"Center City, Philadelphia, PA, USA",0,,328,359,,,75,,3,6,2,2,apartment,No,2014,Within a few days,70%,"June 4, 2017",apartment,,,6,,Philidelphia
4433634ha,Cozy Fishtown Townhouse,,,"North Philadelphia, Philadelphia, PA, USA",2,,150,150,,,,15.5%,,4,3,2,townhome,No,2017,Within a few days,90%,"May 10, 2017",townhome,,,,,Philidelphia
4213808ha,Brand New Townhome With Roof Deck,39.9389233,-75.1827251,"South Philadelphia, Philadelphia, PA, USA",0,,525,500,600,,,8.0%,,12,4,3,townhome,Yes,2016,Within a few days,100%,"June 3, 2017",townhome,,2200,12,,Philidelphia
3952738ha,Newly Renovated 2-Story House W/ Large Kitchen & Great Entertainment Options,39.9228612,-75.1511721,"South Philadelphia, Philadelphia, PA, USA",1,,366,399,,,89,,2,6,2,1,house,Yes,2015,Within an hour,90%,"May 21, 2017",house,,,6,,Philidelphia
4526815ha,MODERN and STYLISH 2 Bedroom Apartment with PERFECT Location,,,"South Philadelphia, Philadelphia, PA, USA",0,,175,175,,,40,12.0%,,5,2,1,apartment,Yes,2016,,,"June 8, 2017",apartment,3,600,,building,Philidelphia
4556673ha,Huge 4 bedroom colonial house in the Heart of Historic Philadelphia,,,"Center City, Philadelphia, PA, USA",0,,459,459,,,90,,3,8,4,2,house,No,2014,,,"June 4, 2017",house,,,,,Philidelphia
3895094ha,Philadelphia Rowhome- Close to Everything,39.9295961,-75.154656,"South Philadelphia, Philadelphia, PA, USA",2,1.5,275,275,,,,8.5%,,7,3,2,townhome,Yes,2015,Within 12 hours,100%,"May 3, 2017",townhome,,,7,,Philidelphia
686601,Quaint Modern 3 BDR Pet-friendly Home in Pennsport. Easy Access to Public Trans,39.921993,-75.1525836,"South Philadelphia, Philadelphia, PA, USA",5,4.8,,80,,,100,10.0%,2,8,3,1,house,No,2015,Within a few hours,80%,"November 7, 2016",house,,840,8,,Philidelphia
687441,Luxury Two Bedroom & Two Bath Loft Next To Convention Center,39.954057,-75.157563,"Center City, Philadelphia, PA, USA",0,,124,,249,,50,,90,6,2,2,condo,Yes,2015,,0%,"August 14, 2015",condo,,1300,6,building,Philidelphia
730361,"The heart of the museum district! 1-2 blocks from Barnes, Rodin, Franklin!",39.95825,-75.174339,"Center City, Philadelphia, PA, USA",4,,400,400,,,150,8.5%,2,8,3,2,house,Yes,2015,Within a few days,60%,"May 31, 2017",house,,1700,,,Philidelphia
743863,Charming 2 Bedroom With Finished Basement In South Philly - Perfect For Pope!,39.926296,-75.1484864,"South Philadelphia, Philadelphia, PA, USA",0,,146,125,200,,,8.0%,2,5,2,1,townhome,No,2015,Within 12 hours,90%,"May 27, 2017",townhome,,,5,,Philidelphia
4022995ha,5 Br Near The Pope!!,39.9952619,-75.252284,"Overbrook, Philadelphia, PA, USA",0,,500,500,,,,,3,9,5,4,house,No,2015,,0%,"July 23, 2016",house,,,9,,Philidelphia
759610,"Very Convenient to Public Transportation, Great Space for You!",40.045135,-75.185956,"Northwest Philadelphia, Philadelphia, PA, USA",0,,85,85,,,50,7.0%,,4,2,1,house,No,2015,Within a few days,90%,"April 3, 2017",house,,350,4,,Philidelphia
754530,West Philly Parkside Pad,39.94935309,-75.20473207,"West Philadelphia, Philadelphia, PA, USA",0,,100,100,150,,,,,8,4,2,house,No,2014,Within a few hours,90%,"May 26, 2017",house,,,8,,Philidelphia
843313,Family Friendly Home Redone For Summer Sublet,40.0571569,-75.192792,"Northwest Philadelphia, Philadelphia, PA, USA",0,,86,90,,,,3.0%,13,5,3,1,townhome,No,2016,,0%,"August 10, 2016",townhome,,,5,,Philidelphia
4241227ha,The Minimalist Quarters,39.95605876,-75.15715249,"Center City, Philadelphia, PA, USA",0,,137,137,,,50,16.5%,,4,2,1,apartment,Yes,2016,Within 12 hours,100%,"June 8, 2017",apartment,2,,4,building,Philidelphia
4441288ha,"Tiny House within a condo. Cozy, Quaint, Private with Secret Pocket Garden",,,"South Philadelphia, Philadelphia, PA, USA",0,,107,130,,,50,,2,5,3,1,condo,Yes,2017,,0%,"June 2, 2017",condo,3,900,5,chateau / country house,Philidelphia
4052213ha,House Available On Main Line,40.0378471,-75.4703516,"Berwyn, PA, USA",0,,175,220,,,100,,3,6,4,2,house,Yes,2015,Within a few days,70%,"April 17, 2017",house,,,6,,Philidelphia
920404,Ultra Comfortable Home with Backyard Oasis and Hot Tub.,39.9106,-74.9492,"Greentree, Cherry Hill, NJ, USA",3,,475,475,,,,7.0%,,10,4,1,house,Yes,2016,Within 2 days,100%,"June 4, 2017",house,,,10,,Philidelphia
727349,"Apt in nice home, picturesque park",,,"Ambler, PA, USA",4,4.3,80,95,105,,,8.0%,2,6,2,1,apartment,Yes,2015,Within an hour,100%,"June 8, 2017",apartment,0,1400,6,house,Philidelphia
1089463,Concordville -1 Bedroom garage apartment country setting in Phila. Suburbs,,,"Glen Mills, PA, USA",0,,75,75,,,40,8.0%,2,2,1,1,apartment,No,2015,,,"June 7, 2017",apartment,,,,,Philidelphia
3994711ha,CENTER CITY CONDO / SLEEPS 6 / SEE THE POPE DURING THE WORLD MEETING OF FAMILIES,39.9470632,-75.15534879,"Washington Square West, Philadelphia, PA, USA",0,,,,,,,,,6,2,21,condo,No,2015,Within a few days,50%,"July 5, 2015",condo,,,6,,Philidelphia
4015077ha,"3.5bed/2bath-walk To Train (10 Min Ride To Dwtn,) Restaurants, Grocery, & Bars",39.9741933,-75.1328673,"North Philadelphia, Philadelphia, PA, USA",0,,,,,,,,,8,3,2,house,Yes,2015,,0%,"July 26, 2015",house,,2000,8,,Philidelphia
