listing_id,listing_title,latitude,longitude,location_name,number_reviews,average_rating,average_nightly_price,nightly,weekend_night,property_protection_fee,cleaning_fee,tax_rate,min_stay,sleeps,bedrooms,bathrooms,property_type,internet,member_since,response_time,response_rate,calendar_last_updated,type,floor,sq_footage,max_occupancy,building_type,city,state
388925,Charlotte Furnished Apartment in Historic Dilworth-most walkable neighborhood,,,"Dilworth, Charlotte, NC, USA",18,4.9,161,,,,,,2,4,1,1,apartment,Yes,2011,Within an hour,,"June 8, 2017",apartment,,,4,,Charlotte,NC
466428,Large 1 BR/1 BA In Elizabeth/plaza Midwood With Front Porch,,,"Elizabeth, Charlotte, NC, USA",22,4.8,132,,,,,,2,4,1,1,apartment,Yes,2011,Within an hour,,"June 8, 2017",apartment,1,1000,4,,Charlotte,NC
388123,Corporate Apartment in Charlotte NC-Historic Dilworth,35.20226669,-80.85321808,"Dilworth, Charlotte, NC, USA",14,,167,,,,,,2,4,1,1,apartment,Yes,2011,Within an hour,,"June 8, 2017",apartment,2,,4,,Charlotte,NC
599295,Exquisite Luxury in the Heart of Myers Park-1 mile to Uptown Charlotte,35.205228,-80.827322,"Myers Park, Charlotte, NC, USA",12,4.9,352,,,,,,2,6,2,2,apartment,Yes,2011,Within an hour,,"June 9, 2017",apartment,1,1300,6,building,Charlotte,NC
357976,Gracious Myers Park 2BR Residence--1 Mile from Uptown,35.20713806,-80.82807159,"Cherry, Charlotte, NC, USA",35,4.9,221,,,,,,2,6,2,1,condo,Yes,2011,Within an hour,,"June 8, 2017",condo,1,950,6,building,Charlotte,NC
359556,Historic Dilworth Remodeled 1920's Apt.-1.5 Miles from Uptown,,,"Dilworth, Charlotte, NC, USA",23,4.8,166,,,,,,2,2,1,1,apartment,Yes,2011,Within an hour,,"June 8, 2017",apartment,1,,2,,Charlotte,NC
375899,Furnished Apartment in Dilworth-Charlotte NC-2br with Screened Porch,,,"Dilworth, Charlotte, NC, USA",17,4.9,201,,,,,,2,4,2,1,apartment,Yes,2011,Within an hour,,"June 8, 2017",apartment,,,4,,Charlotte,NC
491319,"Large 1br/1ba Sleeps 4--no Car Needed-walk To Restaurants, Parks--Gigapower wifi",,,"Elizabeth, Charlotte, NC, USA",20,4.9,134,,,,,,2,4,1,1,apartment,Yes,2011,Within an hour,,"June 9, 2017",apartment,1,1000,4,,Charlotte,NC
453657,Romantic Lakefront Hideaway,,,"Mountain Island, Charlotte, NC, USA",49,4.7,129,135,,,,7.25%,2,3,1,1,villa,Yes,2011,Within an hour,100%,"June 9, 2017",villa,,900,3,,Charlotte,NC
388133,Luxury Apartment in Charlotte-No Car Needed-Dilworth-Longterm or short,,,"Dilworth, Charlotte, NC, USA",16,4.9,234,,,,,,3,6,2,2,apartment,Yes,2011,Within an hour,,"June 8, 2017",apartment,2,,6,,Charlotte,NC
3776027ha,Townhome Loft in Charlotte's Historic Arts District,35.249884,-80.7974748,"North Charlotte, Charlotte, NC, USA",19,4.4,99,75,76,,100,15.25%,1,8,2,2,townhome,Yes,2014,Within a few hours,100%,"May 23, 2017",townhome,3,1450,8,building,Charlotte,NC
388129,Myers Park Furnished Apartment in Charlotte-2br/1ba with screened porch,,,"Cherry, Charlotte, NC, USA",23,,207,,,,,,2,5,2,1,condo,Yes,2011,Within an hour,,"June 9, 2017",condo,1,,5,,Charlotte,NC
373524,"Stylish Intown Getaway 2 miles to Uptown-walk to grocery, dozens of restaurants",,,"Dilworth, Charlotte, NC, USA",25,4.9,195,,,,,,2,4,2,1,apartment,Yes,2011,Within an hour,,"June 8, 2017",apartment,2,1000,4,,Charlotte,NC
755797,"Dilworth! Most walkable neighborhood in Charlotte, quiet street, screened porch.",35.202267,-80.85330573,"Dilworth, Charlotte, NC, USA",3,,164,,,,,,2,4,1,1,apartment,Yes,2011,Within an hour,,"June 9, 2017",apartment,1,800,4,building,Charlotte,NC
695857,Gorgeous 2bd 1.5ba Townhome on Golf Course,35.0841319,-80.793434,"Raintree, Charlotte, NC, USA",32,4.5,111,135,145,,,,2,5,2,1,townhome,Yes,2015,Within an hour,100%,"June 9, 2017",townhome,,1100,5,house,Charlotte,NC
415205,Luxury Furnished Apartment-Charlotte-Myers Park 1 Mile to Cmc & Presby,35.20713806,-80.82807159,"Cherry, Charlotte, NC, USA",22,,247,,,,,,2,6,2,2,condo,Yes,2011,Within an hour,,"June 9, 2017",condo,1,1000,6,,Charlotte,NC
833198,Comfortable One Bedroom In The Hart Of Charlotte,35.185085,-80.750684,"Charlotte, NC, USA",1,,71,80,,,,,2,4,1,1,apartment,Yes,2016,Within a few hours,90%,"May 25, 2017",apartment,2,687,4,building,Charlotte,NC
353073,Lakefront Cottage on Mountain Island Lake/Lake Norman & Lake Wylie,,,"Mountain Island, Charlotte, NC, USA",78,4.8,139,150,,,,8.0%,2,4,2,1,house,Yes,2011,Within a few hours,100%,"June 9, 2017",house,,900,4,,Charlotte,NC
390420,Elegant Myers Park Pied-a-Terre,35.20713806,-80.82807159,"Cherry, Charlotte, NC, USA",10,,211,,,,,,2,5,2,1,condo,Yes,2011,Within an hour,,"June 9, 2017",condo,2,1050,5,,Charlotte,NC
491323,Sweet Furnished Apartment In Historic Elizabeth-Take Streetcar Uptown,,,"Elizabeth, Charlotte, NC, USA",10,,145,,,,,,2,4,1,1,apartment,Yes,2011,Within an hour,,"June 8, 2017",apartment,2,1000,4,,Charlotte,NC
870225,"Is It Orange Or Is It Yellow - Secluded In The City, Minutes From Anywhere!",35.159301,-80.7531039,"Charlotte, NC, USA",29,,125,130,145,,80,15.25%,1,6,3,2,house,Yes,2016,Within 12 hours,100%,"May 20, 2017",house,,1500,6,,Charlotte,NC
7013236ha,Lakefront Log Cabin Getaway with dock,35.369459,-80.929306,"Huntersville, NC, USA",32,4.6,145,135,,,90,7.25%,2,6,2,2,house,Yes,2005,Within a few days,90%,"June 9, 2017",house,,,6,,Charlotte,NC
679741,"Fantastic 4br/2bth Fully Renovated Close to Southpark, Downtown, Myers Park",35.140637,-80.79285,"Olde Providence North, Charlotte, NC, USA",19,4.8,234,259,,,125,15.25%,3,8,3,2,house,Yes,2014,Within an hour,100%,"June 9, 2017",house,,1784,8,,Charlotte,NC
627898,4 Bed/ 2 Bath Fantastic Renovation - Close to Everything,35.16679,-80.859539,"Madison Park, Charlotte, NC, USA",41,4.8,217,229,,,125,15.25%,3,8,4,2,house,Yes,2014,Within an hour,100%,"June 9, 2017",house,,1654,8,,Charlotte,NC
782417,Fantastic 3 Bed/2 Full Bath South Charlotte,35.071624,-80.7887159,"Piper Glen Estates, Charlotte, NC, USA",21,4.8,229,229,,,125,15.25%,3,7,3,2,house,Yes,2014,Within an hour,100%,"June 9, 2017",house,,1575,7,,Charlotte,NC
936454,Charming Carriage House in historic Dilworth just steps away from shops/dining!,,,"Dilworth, Charlotte, NC, USA",11,4.6,100,100,115,,50,15.25%,,4,1,1,bungalow,Yes,2016,Within 12 hours,100%,"June 6, 2017",bungalow,,980,4,,Charlotte,NC
365102,Charlotte Furnished Apartment in Myers Park-deck and sunporch,35.20713806,-80.82807159,"Cherry, Charlotte, NC, USA",27,,167,,,,,,7,4,2,1,condo,Yes,2011,Within an hour,,"June 8, 2017",condo,2,1000,4,,Charlotte,NC
491325,C-Level Accommodations in Charlotte's Best Neighborhood-1 Mile to Uptown,35.205228,-80.827322,"Myers Park, Charlotte, NC, USA",3,,357,,,,,,5,6,2,2,apartment,Yes,2011,Within an hour,,"June 8, 2017",apartment,2,1300,6,,Charlotte,NC
682659,NoDa Historic Arts District Bungalow Home,35.2483357,-80.8022227,"North Charlotte, Charlotte, NC, USA",55,4.8,175,175,,,75,15.25%,2,8,3,2,bungalow,Yes,2015,Within a few hours,100%,"June 8, 2017",bungalow,,1600,8,,Charlotte,NC
742923,The Zen Retreat..An Urban Escape with Fully Renovated Dream Kitchen,35.133419,-80.755532,"Sardis Forest, Charlotte, NC, USA",29,4.7,169,169,189,,,7.25%,,5,3,2,house,Yes,2015,Within a few hours,90%,"June 9, 2017",house,,1800,5,,Charlotte,NC
491322,Comfortable Stay In Eclectic Elizabeth--no Car Needed 1 Mile To Uptown,35.217461,-80.819596,"Elizabeth, Charlotte, NC, USA",7,4.9,158,,,,,,5,4,1,1,apartment,Yes,2011,Within an hour,,"June 8, 2017",apartment,2,1000,4,,Charlotte,NC
898202,"Modern Bungalow Near Uptown, Historic Quiet Neighborhood",35.221951,-80.800115,"Plaza Midwood, Charlotte, NC, USA",23,,147,147,157,,,,2,4,2,1,house,Yes,2016,Within an hour,100%,"June 9, 2017",house,,900,4,,Charlotte,NC
599294,"Charming Cotswold Home with Fenced Yard--Best Schools, 3 Miles to SouthPark",35.170972,-80.785013,"Sherwood Forest, Charlotte, NC, USA",3,,461,,,,,,3,8,4,2,house,Yes,2011,Within an hour,,"June 8, 2017",house,,,8,,Charlotte,NC
723715,"Gorgeous, Large, Updated   Home Close To Uptown and University Area.",35.248398,-80.729331,"Oak Forest, Charlotte, NC, USA",10,4.2,147,175,,,,,2,8,4,2,house,Yes,2015,Within an hour,100%,"June 8, 2017",house,,1900,8,,Charlotte,NC
4190828ha,Best place in Charlotte!,35.116499,-80.82617,"Charlotte, NC, USA",24,4.8,140,115,135,,40,15.25%,3,4,2,1,condo,Yes,2016,Within a few hours,100%,"June 4, 2017",condo,1,1100,,building,Charlotte,NC
293899ha,"This beautiful, charming yet quiet vacation home  is located in University area",35.2944,-80.685542,"Charlotte, NC, USA",19,4.3,185,175,200,,150,,3,8,4,2,house,Yes,2010,Within a day,90%,"June 9, 2017",house,,1945,8,,Charlotte,NC
390228,2br/2ba In-Town Condo with Sleeping Porch - Myers Park,,,"Cherry, Charlotte, NC, USA",12,4.9,295,,,,,,2,6,2,2,condo,Yes,2011,Within an hour,,"June 9, 2017",condo,2,1000,6,,Charlotte,NC
436793,Five-Star Luxury Residence in the Heart of Myers Park-1 Mile to Uptown,35.205228,-80.827322,"Myers Park, Charlotte, NC, USA",3,,342,,,,,,2,6,2,2,condo,Yes,2011,Within an hour,,"June 8, 2017",condo,1,,6,,Charlotte,NC
908223,2 bedroom 2.5 bath close to uptown Charlotte,35.178281,-80.8658729,"Charlotte, NC, USA",11,4.9,,158,178,,,15.25%,2,6,3,2,house,Yes,2016,Within an hour,90%,"May 2, 2017",house,,1400,6,,Charlotte,NC
920564,Dilworth/Southend/Uptown Convenient Temp Housing,35.201498,-80.8458,"Dilworth, Charlotte, NC, USA",2,4.5,172,200,,,100,15.25%,3,4,3,1,townhome,Yes,2006,Within a few days,70%,"May 25, 2017",townhome,1,1200,4,building,Charlotte,NC
1032509,Beautiful South End Luxury Mini Apartment,35.2196499,-80.856494,"Wilmore, Charlotte, NC, USA",0,,100,100,,,35,,2,2,1,1,townhome,Yes,2017,Within 12 hours,100%,"June 5, 2017",townhome,1,410,2,,Charlotte,NC
888440,Uptown Bungalow - Historic District,35.233194,-80.866668,"Wesley Heights, Charlotte, NC, USA",6,3.8,133,149,,,125,,3,6,3,3,house,Yes,2016,Within a few hours,90%,"June 9, 2017",house,,2200,6,,Charlotte,NC
1005742,"Luxury 2 Bedroom near Eastover in Elizabeth, less than 2 mi to Uptown w/ Pool",35.20499595,-80.81675782,"Elizabeth, Charlotte, NC, USA",5,4.6,165,165,175,,85,15.25%,2,6,2,1,condo,Yes,2014,Within a day,100%,"June 7, 2017",condo,2,800,6,building,Charlotte,NC
599296,"Luxe Condo in Best Neighborhood-Walk to Parks, Restaurants, Shops and Streetcar",35.207137,-80.828074,"Cherry, Charlotte, NC, USA",10,4.9,235,,,,,,2,6,2,1,condo,Yes,2011,Within an hour,,"June 9, 2017",condo,1,1000,6,building,Charlotte,NC
4337332ha,Professional Ballantyne location 100% newly remodeled - everything new,35.04922,-80.873199,"Ballantyne, Charlotte, NC, USA",8,4.9,171,200,250,,60,15.2%,4,10,3,2,house,Yes,2016,Within a day,100%,"June 2, 2017",house,,2000,10,,Charlotte,NC
751439,6000+sf Luxury Estate Home 6BR 4.5BA 1.25 acres and pool Providence & 51 Area,,,"Piper Glen Estates, Charlotte, NC, USA",10,4.8,499,499,550,,,15.25%,1,15,6,3,house,Yes,2015,Within an hour,100%,"June 9, 2017",house,,6000,,,Charlotte,NC
977485,"Make one of Charlotte's most prestigious neighborhoods, Myers Park, your home",35.172634,-80.840963,"Barclay Downs, Charlotte, NC, USA",9,,139,129,159,,75,15.25%,6,4,1,1,condo,Yes,2016,Within an hour,100%,"June 5, 2017",condo,1,770,4,building,Charlotte,NC
813369,"Luxurious Townhouse, Close To Uptown in a Lively & Safe Neighborhood!",35.208459,-80.8583867,"Dilworth, Charlotte, NC, USA",8,4.8,119,119,139,,75,15.25%,2,5,2,2,townhome,Yes,2016,Within an hour,90%,"June 9, 2017",townhome,,1100,5,building,Charlotte,NC
4437876ha,Town Home Away from Home,,,"Commonwealth Park, Charlotte, NC, USA",2,,100,95,89,,55,8.0%,5,2,2,1,townhome,Yes,2016,Within 12 hours,100%,"June 7, 2017",townhome,1,900,2,building,Charlotte,NC
4163506ha,Beautifully furnished home next to lake & park -  safe and convenient location,35.075656,-80.895508,"Pineville, NC, USA",0,,133,149,,,120,,3,6,3,2,house,No,2016,Within a few hours,90%,"June 9, 2017",house,,2000,6,,Charlotte,NC
881341,"Simply Red, steps to the Music Factory and Uptown",35.240201,-80.839804,"Fourth Ward, Charlotte, NC, USA",22,4.9,107,100,125,,,15.25%,,4,2,1,house,Yes,2016,Within an hour,100%,"June 7, 2017",house,,1000,4,,Charlotte,NC
605499,family vacation or events (wedding) Waterfront Lake wylie home - pool-hot tub,35.151468,-81.002346,"Dixie - Berryhill, Belmont, NC, USA",20,3.7,600,600,,,,,4,20,7,5,house,Yes,2014,Within a few days,80%,"June 8, 2017",house,,5750,20,,Charlotte,NC
766503,Spacious 3 Bedroom 2.5 Bath Home. Located In Walking Distance To Uptown!,35.233893,-80.866068,"Wesley Heights, Charlotte, NC, USA",8,4.8,187,149,299,,,15.25%,2,6,3,3,bungalow,No,2015,Within a day,100%,"May 30, 2017",bungalow,,,6,,Charlotte,NC
1008841,"Cute and spacious single family home, pet friendly",35.228716,-80.685338,"Charlotte, NC, USA",2,,147,185,195,,60,,3,6,3,2,house,Yes,2017,Within an hour,100%,"June 6, 2017",house,,1812,,,Charlotte,NC
947084,Beautiful Fully Custom Renovated 7 Bedroom Downtown Bungalow,35.216437,-80.808117,"Commonwealth Park, Charlotte, NC, USA",10,4.6,564,425,725,,,,2,14,7,4,house,No,2016,Within an hour,100%,"June 8, 2017",house,,,,,Charlotte,NC
4052444ha,Furnished Condo in Uptown / Downtown Charlotte Fourth Ward with Balcony and View,35.2335517,-80.83711756,"Fourth Ward, Charlotte, NC, USA",0,,120,95,,,100,,3,2,1,1,condo,Yes,2015,Within 12 hours,100%,"May 29, 2017",condo,8,700,2,building,Charlotte,NC
4462431ha,"Cozy, Well-Decorated Home in Quiet University Area",35.296725,-80.680626,"Charlotte, NC, USA",0,,162,139,169,,70,8.25%,,5,2,2,house,Yes,2017,Within a day,90%,"June 8, 2017",house,,2880,,,Charlotte,NC
4245329ha,Luxury Condo In Heart Of Charlotte!,,,"First Ward, Charlotte, NC, USA",16,4.8,149,72,169,,55,15.25%,1,4,1,1,condo,Yes,2016,Within an hour,100%,"June 7, 2017",condo,1,500,4,building,Charlotte,NC
4563363ha,Beautiful home on quiet street 5 MIN WALK to South Park Restaurants & Shop,35.145759,-80.835016,"Beverly Woods, Charlotte, NC, USA",1,,132,129,149,,80,7.25%,1,6,3,1,house,Yes,2017,Within 12 hours,100%,"June 9, 2017",house,,1500,,,Charlotte,NC
4310894ha,Amazing View In The Heart Of Downtown Charlotte,,,"Fourth Ward, Charlotte, NC, USA",8,,155,149,169,,55,15.25%,,4,1,1,condo,Yes,2016,Within a few hours,100%,"June 7, 2017",condo,,800,4,building,Charlotte,NC
1065757,Spacious Condo In Wesley Heights,,,"Wesley Heights, Charlotte, NC, USA",0,,106,115,,,60,,,4,1,1,condo,No,2017,,,"May 12, 2017",condo,,,,,Charlotte,NC
823974,Beautiful Carriage Suite In South Charlotte,35.017717,-80.824038,"Provincetowne, Charlotte, NC, USA",3,4.3,117,130,,,70,15.25%,3,2,1,1,studio,No,2016,Within a day,80%,"June 3, 2017",studio,,,2,,Charlotte,NC
961027,1 Bed 1 Bath Condo in the heart of UNCC and NASCAR,,,"Charlotte, NC, USA",2,,69,62,,,25,15.25%,3,2,1,1,apartment,Yes,2016,Within a few hours,100%,"April 4, 2017",apartment,1,330,2,building,Charlotte,NC
402566,"Stunning Resort Style Home, with Very Private Pool, Spa & Gardens",35.33356857,-80.78216553,"Prosperity Church Road, Charlotte, NC, USA",5,4.6,286,,,,,,7,8,4,3,house,Yes,2012,Within a day,100%,"June 8, 2017",house,,3000,8,,Charlotte,NC
4475452ha,Cozy Country Cottage Near to Charlotte But Feeling Far From It,,,"Weddington, NC, USA",3,,314,200,,,50,6.75%,3,6,3,2,house,Yes,2017,Within 12 hours,100%,"June 6, 2017",house,,,,,Charlotte,NC
4434072ha,Away@home comfort 18 miles to CLT,35.013182,-80.951048,"Fort Mill, SC, USA",2,,108,125,,,,,3,6,2,2,house,No,2017,Within an hour,100%,"June 9, 2017",house,,,,,Charlotte,NC
974694,Elegant Uptown Condo with Fantastic View,,,"Fourth Ward, Charlotte, NC, USA",2,3.5,142,121,127,,100,,1,2,1,1,condo,No,2016,Within an hour,100%,"June 9, 2017",condo,,,,,Charlotte,NC
4445662ha,"Quiet Country Setting with Easy, Close Access to Metro Charlotte",,,"Weddington, NC, USA",3,4.7,150,150,,,,6.75%,3,8,3,2,house,Yes,2017,Within 12 hours,100%,"June 7, 2017",house,,,,,Charlotte,NC
314079,"Beautiful Executive Home, Concord, Sleeps 6",35.37889099,-80.68622589,"Concord, NC, USA",20,,166,195,,,100,,3,6,3,2,house,Yes,2010,Within a day,90%,"June 2, 2017",house,,,6,,Charlotte,NC
896995,"Updated comfortable home, great Charlotte location",35.1710489,-80.871002,"Madison Park, Charlotte, NC, USA",0,,120,120,,,,14.25%,2,6,4,2,house,Yes,2016,Within a few hours,80%,"February 17, 2017",house,,1783,6,,Charlotte,NC
844354,"Lake/Treehouse/dock, big house, big driveway - arcade machine 4 kids",35.2087549,-80.649985,"Mint Hill, NC, USA",5,4.6,200,225,275,,,15.2%,4,8,4,2,house,Yes,2016,Within an hour,100%,"June 9, 2017",house,,2400,8,,Charlotte,NC
951059,Your Home Away From Home,,,"Beverly Woods, Charlotte, NC, USA",11,4.9,539,250,295,,,,2,6,3,2,house,Yes,2016,Within 12 hours,90%,"June 6, 2017",house,,2000,6,,Charlotte,NC
903710,Vibrant Modern Townhouse In Historic Area - Uptown,35.2337976,-80.8671516,"Wesley Heights, Charlotte, NC, USA",2,,107,129,149,,120,,3,4,2,3,townhome,No,2016,Within an hour,100%,"June 9, 2017",townhome,,,4,,Charlotte,NC
889061,Charlotte Luxury Home near Uptown,35.1980799,-80.8411006,"Freedom Park, Charlotte, NC, USA",7,,,300,,,160,,3,8,4,4,house,Yes,2016,Within a few days,90%,"May 14, 2017",house,,,8,,Charlotte,NC
791838,Beautiful Updated Home In Plaza Midwood Neighborhood,35.220891,-80.798605,"Plaza Midwood, Charlotte, NC, USA",0,,253,235,,,,15.0%,2,6,3,1,house,Yes,2014,Within a few hours,100%,"June 1, 2017",house,,1300,6,,Charlotte,NC
241492,Beautiful Home Near Uptown and South Park Mall,,,"Oakhurst, Charlotte, NC, USA",6,4.8,133,94,,,150,,1,10,3,2,house,Yes,2007,Within an hour,100%,"May 4, 2017",house,,,10,,Charlotte,NC
7064928ha,Private home on beautiful Mountain Island Lake in Charlotte,35.342383,-80.954258,"Mountain Island, Charlotte, NC, USA",2,,293,450,,,120,,2,9,4,2,house,Yes,2006,Within a few days,10%,"June 9, 2017",house,,,,,Charlotte,NC
4171144ha,"The ""Treehouse"" 5 acres on dead-end street, private with lots of PARKING!!!",35.2087549,-80.649985,"Mint Hill, NC, USA",4,4.5,200,225,275,,,15.25%,4,10,4,2,house,Yes,2016,Within a few hours,100%,"April 29, 2017",house,,2400,10,,Charlotte,NC
936299,Uptown Craftsman Home - Historic area,,,"Wesley Heights, Charlotte, NC, USA",2,2.5,133,149,169,,125,,3,6,3,2,house,No,2016,Within a few hours,100%,"June 9, 2017",house,,,,,Charlotte,NC
4469349ha,"Big lake house in Belmont, NC (boat rental option)",,,"Belmont, NC, USA",1,,408,375,,,150,,2,10,4,3,house,Yes,2017,Within a few hours,100%,"June 9, 2017",house,,,,,Charlotte,NC
917591,Charlotte Collins Park Area House,,,"Charlotte, NC, USA",7,4.3,187,185,,,45,8.4%,2,4,3,2,house,No,2016,Within 12 hours,100%,"June 7, 2017",house,,,,,Charlotte,NC
194368ha,Beautifully furnished in quiet neighborhood located in southeast Charlotte.,35.051173,-80.808436,"Provincetowne, Charlotte, NC, USA",11,,214,225,,,150,,3,6,3,2,townhome,Yes,2010,Within a few days,80%,"June 1, 2017",townhome,,1660,6,,Charlotte,NC
980948,Cozy Cottage On Lake Wylie,,,"Dixie - Berryhill, Belmont, NC, USA",2,,260,200,,,25,,3,6,2,1,cabin,Yes,2016,Within a few days,60%,"June 2, 2017",cabin,,900,6,,Charlotte,NC
829549,Walk To Uptown- Charming Renovated Cottage In Great Location With Skyline Views!,35.2411978,-80.85495,"Biddleville, Charlotte, NC, USA",5,4.8,166,149,249,,50,15.25%,2,6,3,2,house,No,2015,Within 12 hours,90%,"May 9, 2017",house,,,6,,Charlotte,NC
904433,Beautiful Loft in Uptown Charlotte with City Views!!!,35.236001,-80.841075,"Fourth Ward, Charlotte, NC, USA",2,,,65,,,,15.25%,2,3,Studio,1,condo,Yes,2016,Within a few hours,100%,"February 1, 2017",condo,2,500,3,,Charlotte,NC
491324,Executive Corporate Apartment in Charlotte 1 Mile from Uptown- Private and Quiet,35.205228,-80.827322,"Myers Park, Charlotte, NC, USA",3,,343,,,,,,14,6,2,2,apartment,Yes,2011,Within an hour,,"June 8, 2017",apartment,2,1300,6,,Charlotte,NC
4315697ha,"Remodeled, Clean Ranch Home in Great Location",,,"Madison Park, Charlotte, NC, USA",1,,199,149,,,90,16.25%,3,8,3,1,house,Yes,2016,Within a day,100%,"June 9, 2017",house,,1256,8,,Charlotte,NC
959756,"Ballantyne- Beautiful, newer, clean house in prime location",35.04922,-80.873199,"Ballantyne, Charlotte, NC, USA",1,,171,219,269,,60,15.2%,4,10,3,2,house,Yes,2016,Within an hour,100%,"April 29, 2017",house,,1900,10,,Charlotte,NC
1030926,"Walk to PGA event, large bedrooms, quiet park like setting",,,"Charlotte, NC, USA",6,,90,90,,,85,,3,8,2,1,townhome,Yes,2015,Within an hour,100%,"May 22, 2017",townhome,1,1400,8,building,Charlotte,NC
965649,Perfect for the 2017 PGA Tournament less than 2 miles away,35.1053039,-80.853341,"Cameron Wood, Charlotte, NC, USA",2,,327,275,,,125,15.25%,2,8,4,2,house,Yes,2016,Within a day,100%,"May 30, 2017",house,,2800,8,,Charlotte,NC
151456,Lovely Townhome Near Everything But Not in Everything,35.10865021,-80.97979736,"Brown Road, Charlotte, NC, USA",3,2.7,129,175,195,,150,,3,6,3,2,townhome,Yes,2007,Within an hour,100%,"May 26, 2017",townhome,1,,6,building,Charlotte,NC
1041339,"Hot Tub, Arcade, 5 bd/4bth, Clean & Safe, HUGE",,,"Piper Glen Estates, Charlotte, NC, USA",0,,271,349,374,,50,15.25%,4,12,5,3,house,No,2016,Within an hour,100%,"June 2, 2017",house,,,,,Charlotte,NC
1046255,"2 Bed, 3 bath Townhouse Near UNCC, Charlotte Motor Speedway, Concord Mills Mall",,,"Prosperity Church Road, Charlotte, NC, USA",1,,110,110,,,10,15.25%,,4,2,3,townhome,Yes,2017,Within an hour,100%,"June 1, 2017",townhome,,,,building,Charlotte,NC
4557901ha,Located in Historic South End Charlotte,35.2160363,-80.8538011,"Dilworth, Charlotte, NC, USA",0,,132,175,,,115,7.0%,2,4,Studio,2,apartment,Yes,2017,Within a few hours,90%,"June 7, 2017",apartment,3,,,building,Charlotte,NC
1027659,**sample template below**,,,"Dilworth, Charlotte, NC, USA",1,,86,86,,,,15.25%,2,2,1,1,condo,Yes,2017,Within a day,100%,"June 9, 2017",condo,3,680,2,building,Charlotte,NC
4142392ha,Beautiful 4 Bedroom home,35.017717,-80.824038,"Provincetowne, Charlotte, NC, USA",3,,630,550,,,300,15.25%,4,8,4,4,house,Yes,2016,Within 12 hours,100%,"June 5, 2017",house,,3800,8,,Charlotte,NC
4444929ha,"HUGE, CLEAN, NEWER HOUSE- MINUTES FROM CAROWINDS",35.102288,-80.959618,"Charlotte, NC, USA",2,4.5,299,290,325,,50,15.25%,4,10,5,3,house,Yes,2016,Within a few hours,100%,"May 31, 2017",house,,4500,10,,Charlotte,NC
4562196ha,The Hilltop Porch House,,,"Charlotte, NC, USA",0,,320,310,350,,100,7.25%,1,12,5,3,house,No,2015,Within an hour,100%,"June 9, 2017",house,,,,,Charlotte,NC
368526ha,Upscale Townhouse Close to Downtown & Motor Speedway,35.19294,-80.700817,"Charlotte, NC, USA",13,4.8,121,150,,,,15.25%,3,6,3,2,townhome,Yes,2008,Within a few hours,100%,"June 8, 2017",townhome,,1500,6,,Charlotte,NC
4220426ha,Contemporary Open Loft - Awesome Neighborhood(s)!,35.20999226,-80.81394366,"Elizabeth, Charlotte, NC, USA",0,,119,120,,,,15.25%,2,4,2,1,condo,Yes,2017,Within a few days,100%,"June 4, 2017",condo,3,1432,4,building,Charlotte,NC
4496708ha,"Hot Tub, Arcade, 5 bd/4bth, Clean & Safe, HUGE",35.074519,-80.790484,"Piper Glen Estates, Charlotte, NC, USA",1,,271,349,375,,50,15.25%,3,12,5,3,house,No,2016,Within 12 hours,90%,"May 30, 2017",house,,,,,Charlotte,NC
1056004,High Timbers Home near Southeast Charlotte & Matthews area,,,"Sardis Forest, Charlotte, NC, USA",0,,150,150,,,100,13.5%,4,7,3,2,house,Yes,2017,Within a few hours,100%,"June 3, 2017",house,,2300,,,Charlotte,NC
588181,Beautiful Lakefront House on Lake Wylie in Charlotte,35.169097,-80.995928,"Dixie - Berryhill, Belmont, NC, USA",1,,271,300,,,,,4,6,3,3,house,Yes,2014,Within a few days,30%,"January 29, 2017",house,,3600,6,,Charlotte,NC
1021078,1 Bd/1 Ba Condo In South End/dilworth-- Excellent Location!,35.2036411,-80.8596139,"Dilworth, Charlotte, NC, USA",0,,83,110,,,100,7.25%,3,4,1,1,condo,Yes,2017,Within a few days,90%,"May 22, 2017",condo,2,700,4,,Charlotte,NC
947392,Luxurty Resort Entertainment Home close to Quail Hollow PGA Tournamet,35.121797,-80.811033,"Charlotte, NC, USA",0,,,1,,,350,,4,10,4,7,house,Yes,2016,Within a day,80%,"June 9, 2017",house,,6400,10,,Charlotte,NC
997512,Spacious 5BR/ 3.5BA South Charlotte Home,,,"Charlotte, NC, USA",1,,508,490,,,115,7.25%,2,10,5,3,house,Yes,2017,Within an hour,100%,"June 9, 2017",house,,3000,10,,Charlotte,NC
957821,Near Panthers Stadium /Center City,,,"Wesley Heights, Charlotte, NC, USA",1,,175,175,,,125,15.25%,2,4,1,1,apartment,Yes,2014,Within 12 hours,80%,"May 31, 2017",apartment,,,4,,Charlotte,NC
6973873ha,Charming Renovated Home Close To Entertainment,,,"Madison Park, Charlotte, NC, USA",0,,154,,,,,,,6,2,1,apartment,Yes,2013,Within an hour,,"June 9, 2017",apartment,,,6,,Charlotte,NC
1052377,Stylish Apartment with Luxe Bath & Mod Kitchen - 1 Mile from Uptown,35.20667701,-80.82819144,"Myers Park, Charlotte, NC, USA",3,,126,,,,,,2,2,1,1,apartment,Yes,2011,Within an hour,,"June 9, 2017",apartment,1,800,,building,Charlotte,NC
610382,"Furnished Corporate Bungalow, Only 1 Mile From Center City, Arena, Stadium",35.2022819,-80.842302,"Dilworth, Charlotte, NC, USA",3,,168,125,275,,125,15.25%,6,4,1,1,bungalow,Yes,2014,Within an hour,100%,"May 31, 2017",bungalow,,1200,4,,Charlotte,NC
621632,Furnished Apartment Near Bank of America Stadium and Center City Charlotte,35.2339259,-80.859608,"Wesley Heights, Charlotte, NC, USA",1,,196,175,250,,125,15.25%,2,4,1,1,apartment,Yes,2014,Within 12 hours,100%,"May 31, 2017",apartment,1,,4,building,Charlotte,NC
907082,Remodeled Home Within 5 Minute Drive of Uptown,35.221106,-80.798,"Plaza Midwood, Charlotte, NC, USA",1,,304,295,325,,,15.25%,2,6,2,2,house,Yes,2014,Within 12 hours,90%,"May 31, 2017",house,,1373,6,,Charlotte,NC
473004,Eco-Trendy Uptown Home,35.217714,-80.860219,"Wilmore, Charlotte, NC, USA",1,,171,250,,,75,,,5,2,1,house,Yes,2013,Within a few hours,100%,"March 1, 2017",house,,980,5,,Charlotte,NC
1026661,Luxury Condo Uptown with AMAZING Location,,,"Fourth Ward, Charlotte, NC, USA",1,,499,499,,,50,10.0%,2,5,2,2,condo,No,2017,Within a few days,80%,"June 7, 2017",condo,,,,,Charlotte,NC
6973874ha,Condo above Charlotte's favorite neighborhood NoDa,,,"North Charlotte, Charlotte, NC, USA",0,,182,,,,,,,4,1,1,apartment,Yes,2013,Within an hour,,"June 9, 2017",apartment,,,4,,Charlotte,NC
1031076,Charm And Convenience: Relaxing Retreat In The Midst Of It All!,,,"Elizabeth, Charlotte, NC, USA",0,,,,,,60,,30,4,2,1,townhome,No,2015,Within an hour,100%,"March 30, 2017",townhome,,,,,Charlotte,NC
8195590ha,Beautiful Home By Uptown Ideal for Visitors,,,"Wesley Heights, Charlotte, NC, USA",0,,170,,,,,,,6,2,1,apartment,Yes,2013,Within an hour,,"June 9, 2017",apartment,,,6,,Charlotte,NC
1090591,"Luxury Modern Townhome in the heart of NoDa close to uptown Charlotte, NC",,,"North Charlotte, Charlotte, NC, USA",0,,240,240,,,85,5.0%,2,6,3,2,townhome,No,2017,,,"June 7, 2017",townhome,,,,,Charlotte,NC
4485156ha,Excellent local shoppes between Concord and Northern Charlotte.,,,"Charlotte, NC, USA",0,,42,42,,,5,,,2,1,1,bed & breakfast,No,2017,Within 12 hours,90%,"June 8, 2017",bed & breakfast,,,,,Charlotte,NC
778158,1 Mile Walk to PGA Championship! Charlotte Hospitality in the Heart of SouthPark,35.122712,-80.820031,"Sharon Woods, Charlotte, NC, USA",0,,582,500,,,,15.25%,4,10,4,3,house,Yes,2015,Within a day,100%,"May 29, 2017",house,,3200,10,,Charlotte,NC
375487,Southpark Convenience!  4 Bed/3 BA  10 Min from Uptown!,,,"Barclay Downs, Charlotte, NC, USA",0,,386,,,,,,7,7,4,3,house,Yes,2006,Within a few hours,90%,"June 7, 2017",house,,2500,7,,Charlotte,NC
3861521ha,Great Location for Charlotte Airport Business Traveler,35.253678,-80.92423,"Toddville Road, Charlotte, NC, USA",0,,83,,,,,,29,6,3,2,house,Yes,2014,Within a few days,80%,"May 17, 2017",house,,1500,6,,Charlotte,NC
4177831ha,Modern Minnie Winnie!,,,"Charlotte, NC, USA",0,,243,295,,,250,15.25%,3,9,1,1,recreational vehicle,No,2016,Within a few days,44%,"August 8, 2016",recreational vehicle,,,9,,Charlotte,NC
4257377ha,30 DAY MINIMUM - FROM $65 A NIGHT - VISIT CHARLOTTEFORLESS.COM FOR MORE INFO,35.10614304,-80.79392328,"Wessex Square, Charlotte, NC, USA",1,,70,,,,,15.25%,30,4,2,1,house,Yes,2016,Within an hour,100%,"May 9, 2017",house,,730,4,house,Charlotte,NC
906417,testtesttesttesttesttesttesttesttesttest,35.22924178,-80.83698069,"First Ward, Charlotte, NC, USA",0,,400,400,,,,,30,1,1,1,apartment,No,2016,,0%,"August 16, 2016",apartment,,,,,Charlotte,NC
926987,Cute Dilworth Bungalow - Close To It All,35.200483,-80.859471,"Dilworth, Charlotte, NC, USA",0,,168,160,,,75,15.25%,2,7,3,1,house,Yes,2016,Within an hour,100%,"May 30, 2017",house,,1000,7,,Charlotte,NC
928361,Cozy Apartment in Historic Dilworth Area,,,"Dilworth, Charlotte, NC, USA",0,,208,175,225,,125,15.25%,2,2,1,1,apartment,No,2014,,,"May 31, 2017",apartment,,,,,Charlotte,NC
954487,Center City Skye Condo,35.2225748,-80.8410841,"Second Ward, Charlotte, NC, USA",0,,383,350,,,195,15.0%,2,4,1,1,condo,No,2014,,,"May 31, 2017",condo,,,,,Charlotte,NC
4338461ha,University Area Apartment... Charlotte,,,"Charlotte, NC, USA",0,,89,89,,,20,2.0%,3,2,1,1,apartment,Yes,2016,Within a few hours,100%,"June 7, 2017",apartment,,,,building,Charlotte,NC
968057,60% Off!! Top-Floor Oasis. 4 blocks to Duke/Wells Fargo & just 5 to Bank America,35.2177225,-80.8510972,"Dilworth, Charlotte, NC, USA",0,,,84,,,59,8.0%,60,2,1,1,apartment,Yes,2016,Within a day,80%,"May 31, 2017",apartment,5,,,,Charlotte,NC
4354971ha,"Charming, comfortable home 5 miles from course!",,,"Madison Park, Charlotte, NC, USA",0,,700,700,,,150,,1,8,4,2,house,Yes,2016,Within 2 days,100%,"January 17, 2017",house,,1800,8,,Charlotte,NC
4423710ha,Renovated Home - 1 Mile to PGA Championship,,,"Sharon Woods, Charlotte, NC, USA",0,,,1,,,300,8.0%,4,8,3,3,house,No,2016,,,"June 3, 2017",house,,,,,Charlotte,NC
975086,"Serene, perfect, and exclusive luxury accommodations",35.33323307,-80.78160451,"Prosperity Church Road, Charlotte, NC, USA",0,,286,,,,300,7.25%,7,8,4,3,house,Yes,2017,Within an hour,100%,"May 26, 2017",house,,4000,8,,Charlotte,NC
1003011,Your PGA Championship Family Home,,,"Raintree, Charlotte, NC, USA",0,,850,850,,,90,15.25%,5,8,5,2,house,Yes,2017,,,"January 25, 2017",house,,,8,,Charlotte,NC
6973877ha,Perfect Uptown Loft to Experience Charlotte,,,"Fourth Ward, Charlotte, NC, USA",0,,182,,,,,,,4,1,1,apartment,Yes,2013,Within an hour,,"June 9, 2017",apartment,,,4,,Charlotte,NC
4469524ha,Comfortable Home Within Walking Distance of PGA Championship,35.12282,-80.8649949,"Charlotte, NC, USA",0,,,,,,150,,3,8,4,2,house,Yes,2017,,,"February 17, 2017",house,,,8,,Charlotte,NC
1023092,PGA Championship Week - Perfect Home For Players' Families or Fans,,,"Ballantyne, Charlotte, NC, USA",0,,,1,,,100,,3,10,5,4,house,Yes,2017,Within a few days,100%,"May 10, 2017",house,,4300,10,,Charlotte,NC
994956,Fully Renovated Town Home 1.5 Mile Walk From Quail Hollow Country Club - Pga,,,"Charlotte, NC, USA",0,,,1,,,200,,7,6,3,2,townhome,No,2017,,,"January 9, 2017",townhome,,,,,Charlotte,NC
4486051ha,Summer rental in Dilworth,,,"Dilworth, Charlotte, NC, USA",0,,75,75,,,75,7.0%,30,4,2,2,condo,No,2017,Within 2 days,100%,"April 17, 2017",condo,,,,,Charlotte,NC
1038556,Superb Myers Park 2BR/2BA Residence--1 Mile from Uptown,35.20707187,-80.82788344,"Cherry, Charlotte, NC, USA",1,,186,,,,,,4,4,2,2,condo,Yes,2011,Within an hour,,"June 8, 2017",condo,2,1100,4,building,Charlotte,NC
8195588ha,Uptown Oasis with Pool & Private Rooftop Deck,,,"First Ward, Charlotte, NC, USA",0,,170,,,,,,,4,1,1,apartment,Yes,2013,Within an hour,,"June 9, 2017",apartment,,,4,,Charlotte,NC
1052175,Custom Home Ready for PGA Championship Visitors!,,,"Charlotte, NC, USA",0,,,800,,,250,7.25%,2,10,5,3,house,No,2017,,,"May 31, 2017",house,,2850,,,Charlotte,NC
1053465,PGA Championship Rental 2.5 Miles To Course With Pool!,35.142786,-80.855672,"Charlotte, NC, USA",0,,,1,,,50,,4,6,3,2,house,Yes,2017,,,"April 24, 2017",house,,,,,Charlotte,NC
1063258,2017 PGA Championship Luxury Home,,,"Charlotte, NC, USA",0,,,1,,,275,8.0%,4,7,3,2,house,Yes,2017,,,"April 28, 2017",house,,2232,,,Charlotte,NC
4510595ha,Resort Style Home Only 2.9 Miles Away From Quail Hollow PGA Championship!,,,"Charlotte, NC, USA",0,,,3,,,,,5,6,4,3,house,Yes,2017,,,"April 28, 2017",house,,4500,,,Charlotte,NC
1065546,2br/2.5ba condominium in Wesley Heights by Uptown Charlotte,35.2364249,-80.863889,"Wesley Heights, Charlotte, NC, USA",0,,140,140,,,,,30,4,2,2,condo,Yes,2017,,,"June 8, 2017",condo,1,1300,,building,Charlotte,NC
1065857,"PGA Championship - Luxury 4+ Bedroom in Myers Park, 4 miles to Quail Hollow",35.161253,-80.845153,"Barclay Downs, Charlotte, NC, USA",0,,,1,,,250,8.25%,3,10,5,3,house,Yes,2017,,,"May 1, 2017",house,,3550,,,Charlotte,NC
4537133ha,Perfect PGA Championship Rental - Walking Distance!!!,,,"Cameron Wood, Charlotte, NC, USA",0,,,1,,,200,3.0%,3,8,4,2,house,Yes,2017,,,"May 8, 2017",house,,2300,,,Charlotte,NC
1073129,"PGA Championship Week  Charlotte,NC Walk or Uber 2 miles to the course",,,"Sharon Woods, Charlotte, NC, USA",0,,700,700,,,,,5,8,3,3,house,No,2006,,,"May 23, 2017",house,,2500,,,Charlotte,NC
1078514,Quintessential Plaza Midwood Bungalow,,,"Plaza Midwood, Charlotte, NC, USA",0,,0,,,,75,13.84%,4,8,2,2,house,No,2017,,,"June 2, 2017",house,,1600,,,Charlotte,NC
8248140ha,Fun Modern-Bohemian Home In Entertainment District,,,"Madison Park, Charlotte, NC, USA",0,,170,,,,,,,6,2,1,apartment,Yes,2013,Within an hour,,"June 9, 2017",apartment,,,6,,Charlotte,NC
8248142ha,Amazing Shabby-Chic Home By Popular Destinations,,,"Madison Park, Charlotte, NC, USA",0,,170,,,,,,,6,2,1,apartment,Yes,2013,Within an hour,,"June 9, 2017",apartment,,,6,,Charlotte,NC
8248139ha,Entire Duplex Perfect for Groups & Large Families,,,"Madison Park, Charlotte, NC, USA",0,,363,,,,,,,10,4,2,apartment,Yes,2013,Within an hour,,"June 9, 2017",apartment,,,10,,Charlotte,NC
1088633,Warm 3 BR Cozy Ranch in Friendly South Charlotte,,,"Charlotte, NC, USA",0,,119,119,,,45,7.25%,3,6,3,2,house,Yes,2017,,,"June 6, 2017",house,,1800,,,Charlotte,NC
4585224ha,PGA Championship Perfection - 3 Miles Away - Perfect for Entertaining!,35.1463441,-80.8547605,"Beverly Woods, Charlotte, NC, USA",0,,210,154,,,135,6.0%,2,6,4,2,house,Yes,2017,,,"June 9, 2017",house,,,,,Charlotte,NC
1089915,1 Mile from Uptown - Stunning Apartment w/ Open Layout,35.2068874,-80.8283631,"Cherry, Charlotte, NC, USA",0,,126,,,,,,2,2,1,1,apartment,Yes,2011,Within an hour,,"June 8, 2017",apartment,2,900,2,,Charlotte,NC
1091402,PGA Championship Home,,,"Charlotte, NC, USA",0,,,1,,,125,,4,7,3,2,house,No,2017,,,"June 2, 2017",house,,,,,Charlotte,NC
1093779,Family Home In Cozy Neighborhood Cul-de-Sac,,,"Sherwood Forest, Charlotte, NC, USA",0,,312,295,,,150,15.25%,2,10,4,3,house,Yes,2014,,,"June 3, 2017",house,,,,,Charlotte,NC
1093828,Quaint Cottage In Quiet Neighborhood,,,"Plaza Midwood, Charlotte, NC, USA",0,,264,259,,,150,15.25%,2,5,2,2,house,Yes,2014,,,"June 3, 2017",house,,,,,Charlotte,NC
1095962,"WALK to 2017 PGA Championship: 1/2 mile // Luxury Custom Home, Quail Hollow Area",35.128774,-80.846124,"Beverly Woods, Charlotte, NC, USA",0,,,1,,,250,8.25%,6,10,4,3,house,Yes,2017,,,"June 6, 2017",house,,3950,,,Charlotte,NC
1098009,2br/2.5ba condominium in Wesley Heights by Uptown Charlotte,35.236465,-80.863916,"Wesley Heights, Charlotte, NC, USA",0,,140,140,,,150,,30,4,2,2,condo,Yes,2017,,,"June 8, 2017",condo,1,1300,,building,Charlotte,NC
628274,Lake Norman 1st floor condo,35.452594,-80.892722,"Cornelius, NC, USA",8,,73,,,,101,,30,4,2,2,condo,Yes,2015,Within an hour,100%,"June 6, 2017",condo,1,950,4,building,Charlotte,NC
439127,"Lg. 2 Bedroom Lake Norman Condo, Vineyard Pt Yacht and Tennis Club, Cornelius,NC",35.4527209,-80.890045,"Cornelius, NC, USA",29,4.8,86,,,,,,6,4,2,2,condo,Yes,2012,Within a few days,60%,"May 31, 2017",condo,2,1200,4,,Charlotte,NC
602661,Nana's Lakefront Pad Near Downtown Charlotte -- Renovated,35.254703,-81.0099539,"Harbor House, Belmont, NC, USA",29,4.4,133,150,,,,8.5%,3,6,2,2,house,Yes,2014,Within 12 hours,100%,"June 9, 2017",house,,1400,6,,Charlotte,NC
4056830ha,"Corporate/Vacation Rental Very Near to Nascar Events, Davidson College and Lake",35.457336,-80.866866,"Cornelius, NC, USA",4,,100,,,,,15.25%,30,6,3,2,townhome,Yes,2005,,,"June 9, 2017",townhome,,1468,,,Charlotte,NC
990762,Charming Garage Apartment in Quiet Neighborhood,35.2616933,-81.16179196,"Gastonia, NC, USA",3,,80,110,,,50,12.75%,2,4,1,1,guest house,Yes,2017,Within an hour,100%,"June 9, 2017",guest house,,400,4,,Charlotte,NC
793186,"Make Family Memories! Ideal location, spacious 4 bed home, book your '17 visit!",35.460335,-80.963755,"Denver, NC, USA",21,,300,350,,,150,6.75%,3,10,4,3,house,Yes,2015,Within 12 hours,100%,"June 9, 2017",house,,3400,10,,Charlotte,NC
1029515,NEW LISTING!! Private Beach + Boat! Spacious 6BR/6ba Lakefront 20 Mins from CLT,,,"Pleasant Hill Road, Tega Cay, NC, USA",6,,625,550,,,200,8.5%,1,16,6,6,house,Yes,2014,Within a day,100%,"June 8, 2017",house,,5100,16,,Charlotte,NC
511969,"Waterfront 1st Floor 3/2 Condo. Boat Slip, Pool & Tennis. Pet-Friendly.",35.464567,-80.892756,"Cornelius, NC, USA",70,4.9,191,210,,,,15.25%,2,6,3,2,condo,Yes,2013,Within an hour,100%,"June 8, 2017",condo,1,1450,6,building,Charlotte,NC
565029,Private Beach & BOAT! - Beautiful Spacious 5BR/4ba Lakefront - 20 Mins from CLT,,,"Pleasant Hill Road, Tega Cay, NC, USA",56,4.9,716,425,,,200,8.5%,1,14,5,4,house,Yes,2014,Within a day,100%,"June 8, 2017",house,,4200,14,,Charlotte,NC
856151,Lake Norman Luxury Waterfront Condo - Boat Slip May Be Available,35.464476,-80.8925749,"Cornelius, NC, USA",26,,250,250,,,,15.25%,3,6,3,2,condo,Yes,2016,Within an hour,100%,"June 7, 2017",condo,2,1450,,building,Charlotte,NC
981093,Resort-Like Home / 4 Bed / 3 Bath / minutes from Charlotte,,,"Mount Holly, NC, USA",10,4.9,125,125,,,200,,3,10,4,3,house,No,2014,Within an hour,100%,"June 9, 2017",house,,1700,10,,Charlotte,NC
743093,Mid-Century Getaway with Fantastic Lake Wylie Views,35.04587,-81.034964,"Pleasant Hill Road, Tega Cay, NC, USA",23,4.8,300,300,,,,8.0%,2,10,4,3,house,Yes,2015,Within a few hours,100%,"June 9, 2017",house,,2000,10,,Charlotte,NC
233506,Beautiful water views,,,"Pleasant Hill Road, Tega Cay, NC, USA",58,4.9,236,,,,,7.25%,3,8,4,3,house,Yes,2009,Within 2 days,90%,"June 8, 2017",house,,,8,,Charlotte,NC
237839,Beautiful water views,35.04724121,-81.037323,"Pleasant Hill Road, Tega Cay, NC, USA",58,4.9,275,,,,,7.25%,3,8,4,3,house,Yes,2009,Within 2 days,90%,"June 8, 2017",house,,3000,,,Charlotte,NC
512355,"Waterfront Condo, 1st Floor, Pool & Tennis Court, Boat Slip May Be Available",35.464475,-80.89281,"Cornelius, NC, USA",30,4.9,202,210,,,100,15.25%,2,6,3,2,condo,Yes,2013,Within a few hours,100%,"June 1, 2017",condo,1,1450,6,,Charlotte,NC
662651,"Lake Norman Waterfront Condo 3/2 Ground Floor, Pool, Boat Slip, & Pet Friendly",35.464433,-80.89162,"Cornelius, NC, USA",35,4.8,197,210,,,100,15.25%,2,6,3,2,condo,Yes,2013,Within an hour,100%,"June 8, 2017",condo,1,1455,6,building,Charlotte,NC
906480,"Third floor waterfront condo with panoramic views, pool, tennis, restaurant",35.464621,-80.891568,"Cornelius, NC, USA",7,4.9,219,225,225,,100,15.25%,3,7,3,2,condo,Yes,2016,Within an hour,100%,"June 8, 2017",condo,3,1500,7,building,Charlotte,NC
417871,Tranquil Lakefront Home,35.128772,-81.061215,"Lake Wylie, SC, USA",8,,271,300,,,,10.0%,4,8,3,2,house,Yes,2012,Within a few days,70%,"June 6, 2017",house,,,8,,Charlotte,NC
716775,"Intimate Hideaway With Beach, Dock, Boating, Fishing, Hot Tub, Decks and Porch",35.125877,-81.034192,"Steele Creek, Charlotte, NC, USA",29,4.8,206,209,,,,7.25%,3,6,2,2,bungalow,Yes,2011,Within 12 hours,100%,"June 9, 2017",bungalow,,800,6,,Charlotte,NC
419115,Family-Friendly Lakehouse Retreat,35.466304,-80.981618,"Denver, NC, USA",22,4.9,204,175,,,100,7.0%,3,8,2,1,cabin,Yes,2012,Within a day,100%,"June 8, 2017",cabin,,1300,8,,Charlotte,NC
703065,The Cozy Cove -- Lake House On Lake Wylie Nc,35.090395,-81.044218,"Pleasant Hill Road, Tega Cay, NC, USA",35,4.9,210,165,,,175,15.25%,3,8,3,3,house,Yes,2015,Within a day,100%,"June 9, 2017",house,,,8,,Charlotte,NC
735481,Welcoming lakefront living for up to 8 guests!,35.060074,-81.040587,"Pleasant Hill Road, Tega Cay, NC, USA",14,4.4,190,150,,,,9.0%,2,8,3,2,house,Yes,2015,Within a few hours,100%,"June 8, 2017",house,,2000,8,,Charlotte,NC
594128,"Main-Channel, Wide View from this Elegant, Newly Renovated Cottage",35.1259718,-81.03410951,"Steele Creek, Charlotte, NC, USA",55,4.9,232,225,,,,7.25%,3,8,2,2,cottage,Yes,2011,Within a day,100%,"June 9, 2017",cottage,,1600,8,,Charlotte,NC
910886,Historic Cottage - Walk to Main Street - Sun Room - 7th Night Free,35.002272,-80.94996,"Fort Mill, SC, USA",1,,150,,,,,,3,6,3,2,house,Yes,2005,Within an hour,,"June 9, 2017",house,,1600,6,,Charlotte,NC
3922948ha,Spectatacular Waterfront with 2 Private Piers and Fabulous Lake side Pool!!,35.433625,-80.936508,"Huntersville, NC, USA",9,,833,1,,,,15.25%,5,21,5,5,house,Yes,2015,Within a few hours,100%,"June 8, 2017",house,,3700,21,,Charlotte,NC
512222,"Waterfront Condo, 1st Floor, Pool & Tennis Court, Boat Slip May Be Available",35.464649,-80.892909,"Cornelius, NC, USA",20,4.8,201,210,,,100,15.25%,2,6,3,2,condo,Yes,2013,Within an hour,100%,"June 8, 2017",condo,1,1450,6,,Charlotte,NC
1053598,"Furnished, All Util Incl Corporate/Short Term 4 Bdrm Home/Great School!",35.4122867,-80.6695593,"Concord, NC, USA",0,,83,,,,75,12.0%,30,8,4,2,house,Yes,2014,Within an hour,100%,"June 9, 2017",house,,1800,,,Charlotte,NC
823018,Modern Cottage Near Charlotte,35.010457,-80.953163,"Fort Mill, SC, USA",18,4.7,110,110,,,65,8.0%,2,8,3,1,cottage,Yes,2015,Within 12 hours,80%,"June 6, 2017",cottage,,1000,8,,Charlotte,NC
278386,Serenity at Lake Wylie,35.0293808,-81.06881714,"York, SC, USA",27,4.7,311,325,,,,8.0%,3,8,3,2,house,Yes,2009,Within a few hours,100%,"June 8, 2017",house,,,8,,Charlotte,NC
739500,Lake Norman Waterfront Condo boat slip available,35.464602,-80.892269,"Cornelius, NC, USA",38,,235,235,,,100,15.25%,1,6,3,2,condo,Yes,2015,Within an hour,100%,"June 9, 2017",condo,3,1450,6,building,Charlotte,NC
670109,"Waterfront 3BR Condo, 1st Floor, Boat Slip may be available, Pool and Tennis",35.464447,-80.891409,"Cornelius, NC, USA",28,,195,200,,,100,15.25%,2,6,3,2,condo,Yes,2015,Within 12 hours,100%,"June 4, 2017",condo,1,1450,6,,Charlotte,NC
716967,"Incredible Peninsula Lake House 360 Views, Your Own Beach, Docks,1000' Shoreline",35.0645359,-81.067811,"York, SC, USA",5,4.8,395,395,,,125,7.0%,6,10,4,2,house,Yes,2015,Within 12 hours,90%,"June 9, 2017",house,,2000,10,,Charlotte,NC
664229,"Custom Lake Norman cottage, new construction, modern, private getaway for two",35.46568857,-80.97952883,"Denver, NC, USA",14,4.9,244,250,,,,6.75%,5,6,2,2,cottage,Yes,2015,Within 12 hours,90%,"May 17, 2017",cottage,,1350,6,,Charlotte,NC
573158,"Waterfront Condo, 1st Floor, Pool & Tennis Court, Boat Slip May Be Available",35.464697,-80.892873,"Cornelius, NC, USA",18,4.8,207,210,,,100,15.25%,2,6,3,2,condo,Yes,2013,Within an hour,100%,"June 8, 2017",condo,1,1450,6,,Charlotte,NC
477910,"Beachfront Property, Nicest Rental on Lake Wylie",35.0690413,-81.0683611,"Lake Wylie, SC, USA",11,4.9,300,280,280,,,7.5%,2,10,3,3,house,No,2013,Within an hour,100%,"June 2, 2017",house,,2800,10,,Charlotte,NC
835263,"Clean And Spacious Three Level Four Bedroom Condo With Hottub, Loft, Bonus Room",,,"Lake Wylie, SC, USA",1,,333,350,,,,,2,12,4,6,condo,No,2016,Within a few days,50%,"June 9, 2017",condo,,,12,,Charlotte,NC
715703,JUNE SPECIAL Book Between 6/17-7/1 for $1100/wk- contact Mgr @ 803.493.3171,35.051909,-81.023559,"Pleasant Hill Road, Tega Cay, NC, USA",8,,193,200,,,150,7.0%,3,7,2,2,house,Yes,2015,Within a day,100%,"June 9, 2017",house,,2200,7,,Charlotte,NC
608635,Mom's Cabin - Relax Without Trying,35.049895,-81.0394139,"Pleasant Hill Road, Tega Cay, NC, USA",38,4.9,186,168,184,,,15.25%,2,6,3,2,cabin,Yes,2014,Within a few hours,100%,"June 6, 2017",cabin,,1500,6,,Charlotte,NC
4554026ha,Corporate and Shorter Term Rental Cornelius NC,,,"Cornelius, NC, USA",0,,88,88,,,120,15.25%,7,4,2,2,condo,Yes,2005,,,"June 9, 2017",condo,1,1125,,,Charlotte,NC
590416,Lakefront Cabin on main channel!,35.0556259,-81.046051,"Pleasant Hill Road, Tega Cay, NC, USA",9,4.2,276,275,,,,8.25%,2,8,3,2,cabin,Yes,2014,Within an hour,100%,"June 6, 2017",cabin,,2100,8,,Charlotte,NC
960286,Beautiful family friendly home with endless activities!!!,,,"Concord, NC, USA",4,4.8,414,400,,,200,12.0%,2,10,5,4,house,Yes,2016,Within a few hours,100%,"June 9, 2017",house,,4800,10,,Charlotte,NC
1019230,Your Mansion Awaits!,35.157385,-81.026543,"Steele Creek, Charlotte, NC, USA",0,,900,750,900,,250,,2,12,5,4,house,No,2017,Within 2 days,100%,"June 9, 2017",house,,,,,Charlotte,NC
713450,Jump For Joy Equestrian Center,35.290967,-80.582647,"Concord, NC, USA",13,4.5,100,120,,,,,2,9,1,1,cottage,Yes,2015,Within 12 hours,100%,"May 7, 2017",cottage,,,9,,Charlotte,NC
840397,"Clean, Convenient Location, Close To Many Attractions. Garage parking!",35.387332,-80.667833,"Concord, NC, USA",8,,107,125,,,,7.25%,2,4,1,1,apartment,Yes,2016,Within an hour,100%,"June 9, 2017",apartment,2,750,4,house,Charlotte,NC
933554,Lakeside Rental Ready RV,,,"Steele Creek, Charlotte, NC, USA",1,,79,79,,,85,15.3%,2,6,1,1,recreational vehicle,No,2016,Within 12 hours,100%,"June 8, 2017",recreational vehicle,,,,,Charlotte,NC
43859,Lakefront 1st Floor 3 Bd/2 Ba -Walkout patio to lake! Pool - Free Boat Slip,35.464605,-80.892945,"Cornelius, NC, USA",29,4.9,225,225,225,,100,15.25%,3,6,3,2,condo,Yes,2004,Within a few days,60%,"May 28, 2017",condo,1,1450,6,,Charlotte,NC
977180,Tiny House Lakeside Glamping Resort #8,35.11496323,-81.02914434,"Steele Creek, Charlotte, NC, USA",3,4.3,119,119,139,,85,15.25%,2,6,2,1,cabin,Yes,2016,Within an hour,100%,"June 8, 2017",cabin,,,6,,Charlotte,NC
1040755,"Luxury home  Lake Wylie Main Channel. Spacious, Pool Hot tub",35.099148,-81.035659,"Steele Creek, Charlotte, NC, USA",0,,650,650,,,250,15.25%,6,20,8,6,house,Yes,2015,Within an hour,100%,"June 9, 2017",house,,6000,20,,Charlotte,NC
512133,"Splendid Lake Front View, Poolside, FREE Boat Slipâ€“ 3 bd w/ King Master",35.464673,-80.892479,"Cornelius, NC, USA",19,4.9,225,225,225,,100,15.25%,3,8,3,2,condo,Yes,2004,Within an hour,100%,"June 3, 2017",condo,3,1450,8,,Charlotte,NC
1014506,#4 - Tiny House Glamour Camping Resort,35.114384,-81.029316,"Steele Creek, Charlotte, NC, USA",2,4.5,88,99,119,,85,15.25%,2,3,1,1,cabin,Yes,2016,Within a day,100%,"June 9, 2017",cabin,,345,3,,Charlotte,NC
913703,"Lake Norman Getaway!  Waterfront Cottage with dock, paddle boards & paddle boat",35.447785,-80.905519,"Cornelius, NC, USA",5,,225,225,,,,,2,2,1,1,cottage,No,2016,Within 2 days,90%,"March 4, 2017",cottage,,700,2,,Charlotte,NC
1013329,"Discover the true ""Lake Experience"" at our ""Overlook"" on Lake Wylie",,,"Steele Creek, Charlotte, NC, USA",4,,193,209,,,125,7.25%,3,6,2,2,cabin,No,2011,Within a day,100%,"June 9, 2017",cabin,,,,,Charlotte,NC
1071719,SUNSET SERENITY VACATION RENTAL 15 MINUTES TO DAVIDSON COLLEGE,35.464485,-80.89182,"Cornelius, NC, USA",2,,195,195,,,100,7.25%,2,6,3,2,condo,Yes,2017,Within an hour,100%,"June 5, 2017",condo,2,1400,,building,Charlotte,NC
927652,Economic Family Cottage,35.114384,-81.029316,"Steele Creek, Charlotte, NC, USA",2,,79,79,99,,85,15.3%,2,4,Studio,1,cottage,Yes,2016,Within a few hours,100%,"June 8, 2017",cottage,,530,4,,Charlotte,NC
995218,Tiny House Lakefront Glamour Camping Resort #7,35.11499833,-81.02905851,"Steele Creek, Charlotte, NC, USA",2,4.5,119,119,139,,,15.25%,2,6,2,1,cabin,Yes,2016,Within an hour,100%,"June 8, 2017",cabin,,335,6,,Charlotte,NC
229091,"Lakeside Villa, Charlotte, ~NC~",35.20465851,-81.00956726,"Belmont, NC, USA",15,4.8,214,,,,,7.75%,7,4,2,2,villa,Yes,2009,Within a few days,80%,"May 6, 2017",villa,,,4,,Charlotte,NC
927564,Luxurious one-of-a-kind  lakefront estate with breathtaking views and sunsets.,,,"Pleasant Hill Road, Tega Cay, NC, USA",0,,675,675,,,225,12.0%,6,10,4,3,estate,Yes,2012,,,"March 28, 2017",estate,,4500,10,,Charlotte,NC
955856,Guesthouse on Wylie Lake ~ Kayaks!,35.095774,-81.057922,"Pleasant Hill Road, Tega Cay, NC, USA",0,,295,295,,,,,3,5,2,2,cottage,Yes,2016,Within a few days,80%,"June 8, 2017",cottage,,1500,,,Charlotte,NC
800255,Fort Mill Bungalow Near Charlotte,35.0089018,-80.9321737,"Fort Mill, SC, USA",3,4.7,120,120,,,65,,,7,3,2,bungalow,No,2015,Within a few hours,100%,"June 6, 2017",bungalow,,,7,,Charlotte,NC
476687,"Lake Front Off Main Channel, Sun All Day, Deep Water, Beautiful Sun Sets",35.474959,-80.96208,"Denver, NC, USA",13,,336,328,,,150,6.75%,4,6,3,2,house,Yes,2013,Within a few hours,100%,"June 1, 2017",house,,1800,,,Charlotte,NC
996512,"Beautiful older home, convenient, clean and cozy!!! Sleeps 8",,,"Concord, NC, USA",0,,193,200,,,,15.0%,2,8,3,1,house,Yes,2014,Within 12 hours,100%,"June 6, 2017",house,,1900,,,Charlotte,NC
1046485,"Beautiful Lake Norman Waterfront Condo, Boat Slip May Be Available",35.464658,-80.892687,"Cornelius, NC, USA",2,,230,230,,,100,15.25%,3,6,3,2,condo,Yes,2016,Within 12 hours,100%,"June 7, 2017",condo,2,1450,,villa,Charlotte,NC
827500,"Fabulous Views, Privacy And Beautiful Furnishings Convenient To Everything",35.4268915,-80.920765,"Huntersville, NC, USA",1,,400,450,,,,8.25%,5,8,1,2,house,Yes,2016,Within an hour,90%,"May 11, 2017",house,,3400,8,,Charlotte,NC
1015072,Lakefront RV Campground,,,"Steele Creek, Charlotte, NC, USA",0,,29,35,,,1,,,30,Studio,1,campground,Yes,2016,Within a day,100%,"June 8, 2017",campground,,600,30,,Charlotte,NC
603068,Luxury Lakefront 2BR/2BA Condo Steps To Lake,35.444815,-80.897413,"Cornelius, NC, USA",3,2.7,99,99,,,125,11.75%,30,4,2,2,condo,Yes,2014,,0%,"October 26, 2015",condo,1,1200,4,,Charlotte,NC
976799,Tiny House Glamping Lakefront Cabin #6,35.114384,-81.029316,"Steele Creek, Charlotte, NC, USA",2,,119,119,139,,85,15.25%,2,6,2,1,cabin,Yes,2016,Within 12 hours,100%,"June 9, 2017",cabin,,,6,,Charlotte,NC
4560113ha,Luxury Expansive Lake Rental - Private setting with dock,,,"Steele Creek, Charlotte, NC, USA",0,,,1,,,250,6.0%,3,10,5,6,house,Yes,2017,Within 12 hours,100%,"June 7, 2017",house,,6500,,,Charlotte,NC
86063,Uptown on the Park....Walk to everything,35.22709,-80.84313,"Second Ward, Charlotte, NC, USA",3,,136,149,,,,7.25%,3,4,2,1,condo,Yes,2004,Within a day,80%,"April 17, 2017",condo,,900,,,Charlotte,NC
142984,2 Bedroom/1.5Bath Nestled in the Woods But Close to Retail and Attractions,35.16957855,-81.0007019,"Dixie - Berryhill, Belmont, NC, USA",55,,166,180,,,,7.25%,3,5,2,1,cabin,Yes,2007,Within a few days,80%,"June 1, 2017",cabin,,1200,5,,Charlotte,NC
159845,Newly Furnished Condo Near Uptown,,,"Cotswold, Charlotte, NC, USA",5,4.4,63,,,,125,,30,6,2,2,condo,Yes,2007,Within an hour,100%,"October 1, 2016",condo,,,6,,Charlotte,NC
654396,Stylish and Spacious Charlotte Home,35.18207959,-80.79048022,"Cotswold, Charlotte, NC, USA",1,,138,150,,,150,,14,8,3,2,house,Yes,2007,Within a few hours,100%,"November 22, 2016",house,,1900,8,,Charlotte,NC
879197,"Southpark/Ballantyne Area - Golf Courses, Shopping, Spa",35.1048959,-80.857011,"Cameron Wood, Charlotte, NC, USA",3,,349,349,,,,15.25%,3,11,4,2,house,Yes,2016,Within 12 hours,100%,"May 20, 2017",house,,2656,11,,Charlotte,NC
984441,"BRAND NEW LUXURY HM NEAR DOWNTOWN CHARLOTTE,CAROLINA PANTERS,NASCAR,BASEBALL!",,,"Charlotte, NC, USA",0,,200,200,,,,,2,6,3,3,house,No,2006,Within a few days,70%,"June 9, 2017",house,,,,,Charlotte,NC
974897,Stylish Condo near Southpark and Ballantyne,,,"Charlotte, NC, USA",0,,80,80,,,125,,30,5,2,2,condo,Yes,2007,Within 12 hours,100%,"December 3, 2016",condo,,1200,5,building,Charlotte,NC
996789,Easy Walking Distance to PGA Tournament!,,,"Beverly Woods, Charlotte, NC, USA",0,,658,600,,,,,1,6,3,2,townhome,No,2015,,,"January 12, 2017",townhome,,,,,Charlotte,NC
249982,The Cedar Cottage on the Lake,35.04394627,-81.03391171,"Tega Cay, SC, USA",15,4.9,0,,,,,8.0%,2,8,5,4,house,Yes,2009,Within a few days,70%,"May 29, 2017",house,,2400,8,,Charlotte,NC
126404,Bubba's Cabin- Modern Rustic w/ Incredible View..Must See 360* View Virtual Tour,,,"Belmont, NC, USA",17,,267,250,,,,7.25%,3,4,2,2,cabin,Yes,2004,Within 2 days,80%,"May 26, 2017",cabin,,1300,4,,Charlotte,NC
368605ha,Waterfront Modern Rustic Dream Home on the beautiful shores of Lake Wylie,35.187761,-81.045105,"Belmont, NC, USA",35,4.9,475,475,,,180,11.25%,1,12,4,3,house,Yes,2011,Within a few days,80%,"March 20, 2017",house,,5000,12,,Charlotte,NC
378025,"Snug Harbor Waterfront Avail for Getaways, Retreats, Reunions",,,"Pleasant Hill Road, Tega Cay, NC, USA",19,4.9,795,795,,,365,15.25%,2,30,7,7,estate,Yes,2011,Within a few days,80%,"June 8, 2017",estate,,6000,30,,Charlotte,NC
398118,Waterfront Executive Home on Main Channel-All the Comforts of Home Plus More,,,"Steele Creek, Charlotte, NC, USA",25,,184,195,,,100,7.25%,3,6,2,2,house,Yes,2007,Within a few days,70%,"June 8, 2017",house,,2200,6,,Charlotte,NC
587247,Large Waterfront Estate With Outdoor Kitchen & Bathroom,35.119589,-81.039024,"Steele Creek, Charlotte, NC, USA",4,4.8,500,500,,,200,11.0%,3,14,4,3,house,Yes,2014,Within an hour,100%,"June 2, 2017",house,,,14,,Charlotte,NC
615115,Welcome to The Fountain of Young,35.188108,-81.039721,"Belmont, NC, USA",23,,607,695,,,225,,3,12,5,3,house,Yes,2004,Within 2 days,100%,"May 23, 2017",house,,3700,12,,Charlotte,NC
653959,"Charlotte Vacation Home. Huge! Sleeps 20. Near NASCAR, Water Park, University",,,"Concord, NC, USA",14,4.8,212,198,,,165,,1,20,5,3,house,Yes,2014,Within 12 hours,100%,"June 6, 2017",house,,4000,20,,Charlotte,NC
741502,"Camm's Lakeside Retreat - 240 Degree View Of Lake Wylie, 1 Acre Pier Gazebo",35.1882189,-81.040398,"Belmont, NC, USA",13,,421,475,,,150,7.25%,3,12,4,4,house,Yes,2004,Within 2 days,100%,"May 24, 2017",house,,3100,12,,Charlotte,NC
998885,Amazing Bungalow in Historic Downtown Belmont.... On the Park,,,"Belmont, NC, USA",2,,171,189,,,75,,3,6,2,2,house,Yes,2004,Within a day,90%,"May 4, 2017",house,,,6,,Charlotte,NC
4018514ha,Luxurious Getaway In Charlotte,,,"Ballantyne, Charlotte, NC, USA",5,4.6,171,200,,,,15.25%,2,10,2,2,condo,Yes,2015,Within a few days,40%,"June 6, 2017",condo,1,2000,,building,Charlotte,NC
4544010ha,15 Minuets From Down Town Charlotte And The Speedway In Concord,,,"Charlotte, NC, USA",0,,215,215,,,35,,2,16,3,3,house,No,2017,Within an hour,100%,"June 9, 2017",house,,,,,Charlotte,NC
4348996ha,Mountain House in the city!,,,"Charlotte, NC, USA",3,,90,90,,,10,,,4,1,1,house,Yes,2016,Within a few hours,100%,"June 7, 2017",house,,1000,4,,Charlotte,NC
978518,Gorgeous Downtown 3B/3Bath Gem close to everything,35.234097,-80.839478,"Fourth Ward, Charlotte, NC, USA",3,,,175,205,,70,17.0%,2,5,3,3,house,Yes,2016,Within a day,90%,"May 17, 2017",house,,1500,5,,Charlotte,NC
697549,PGA Championship Week August 6th - 13!,35.143485,-80.865083,"Starmount, Charlotte, NC, USA",0,,606,400,,,100,,3,6,3,2,townhome,Yes,2015,Within a few days,10%,"June 5, 2017",townhome,1,1600,6,building,Charlotte,NC
803175,Uptown Luxury Highrise Condo - One block from the Ritz-Carlton,35.2290372,-80.842444,"Fourth Ward, Charlotte, NC, USA",1,,250,299,299,,,8.0%,2,2,1,1,condo,No,2016,Within 2 days,90%,"January 31, 2017",condo,,,2,building,Charlotte,NC
4216244ha,The Best View In South End Charlotte,35.2178673,-80.8576628,"Wilmore, Charlotte, NC, USA",0,,180,180,,,,,,2,1,1,apartment,No,2016,,0%,"May 3, 2017",apartment,,,2,,Charlotte,NC
