listing_id,listing_title,latitude,longitude,location_name,number_reviews,average_rating,average_nightly_price,nightly,weekend_night,property_protection_fee,cleaning_fee,tax_rate,min_stay,sleeps,bedrooms,bathrooms,property_type,internet,member_since,response_time,response_rate,calendar_last_updated,type,floor,sq_footage,max_occupancy,building_type,city
371541,"Relax in Cozy, Vintage Amish Country Rental with Lake and Barn",,,"Middlefield, OH, USA",17,,129,150,,,,,,10,4,1,farmhouse,Yes,2011,Within a few days,70%,"June 6, 2017",farmhouse,,,10,,Cleaveland
968828,Warehouse District Condo - Completely Renovated in 2017,,,"Downtown, Cleveland, OH, USA",0,,125,149,,,100,2.9%,,2,1,1,condo,Yes,2015,Within a few days,90%,"May 24, 2017",condo,3,,2,building,Cleaveland
874805,Newly Renovated Lakefront Beauty,41.4937548,-81.780298,"Lakewood, OH, USA",0,,123,,,,,,7,2,1,1,condo,Yes,2012,Within 2 days,90%,"May 30, 2017",condo,1,900,2,building,Cleaveland
793521,â˜… Professionally remodeled  century home minutes from the clinic & Downtown!,41.519542,-81.54536,"Cleveland Heights, OH, USA",15,4.9,225,225,245,,85,5.5%,3,8,4,1,farmhouse,Yes,2016,Within an hour,100%,"June 9, 2017",farmhouse,,1600,,,Cleaveland
557545,Saratoga #1 Entire House Centrally Located: Cleveland House Hotels,41.432094,-81.694232,"South Hills, Cleveland, OH, USA",25,4.8,133,165,200,,50,,1,12,4,2,house,Yes,2014,Within a day,100%,"June 7, 2017",house,,1400,12,,Cleaveland
718397,West Saint James Blvd,41.494422,-81.58674309,"Cleveland Heights, OH, USA",24,4.8,277,260,290,,75,5.5%,3,8,4,2,house,Yes,2015,Within a few hours,100%,"May 21, 2017",house,,1800,8,,Cleaveland
350495,Cleveland's Little Italy,41.50682831,-81.59728241,"University Circle, Cleveland, OH, USA",96,4.9,133,177,200,,,,,5,2,1,house,Yes,2011,Within an hour,100%,"June 9, 2017",house,,,5,,Cleaveland
885404,A Beautiful View Of Cleveland,41.50042435,-81.61324495,"University Circle, Cleveland, OH, USA",0,,,5,,,,8.0%,,4,2,2,condo,Yes,2016,Within a few days,16%,"June 28, 2016",condo,16,2800,4,building,Cleaveland
868860,Artists Historic 2 Bdrm Brownstone Flat Apt  * 5 Minutes To Downtown Cleveland!,41.4872839,-81.7660198,"Edgewater, Cleveland, OH, USA",6,3.8,111,120,,,,,,6,2,1,apartment,Yes,2015,Within a few hours,100%,"June 9, 2017",apartment,,,6,building,Cleaveland
4337742ha,Guest Cottage on 4 acre Estate Near Downtown Cleveland,,,"Bratenahl, OH, USA",8,4.9,60,60,,,,5.5%,3,2,1,1,cottage,Yes,2016,Within a day,90%,"June 8, 2017",cottage,,,2,,Cleaveland
504871,All New Condo with Direct Lake Erie views  2 Bedrooms 2 Bath Lighthouse & Harbor,41.5011839,-81.7021849,"Downtown, Cleveland, OH, USA",41,4.6,200,250,300,,,8.5%,2,4,2,2,condo,Yes,2013,Within an hour,100%,"June 7, 2017",condo,6,940,4,building,Cleaveland
855192,Trendy Stone Castle --12 min to CWRU/Cleveland Clinic,41.51844792,-81.53524837,"South Euclid, OH, USA",1,,90,90,,,,,6,4,2,1,apartment,Yes,2016,Within 12 hours,100%,"May 22, 2017",apartment,2,,4,castle,Cleaveland
4262450ha,Beautiful Five Bedrooms Vacation Home Awaiting You Call Home,41.410683,-81.584294,"Maple Heights, OH, USA",4,4.8,230,150,200,,,8.0%,1,14,5,2,house,Yes,2016,Within an hour,100%,"June 9, 2017",house,,3000,14,,Cleaveland
587438,Cleveland's Little Italy #2,41.50856497,-81.59609094,"University Circle, Cleveland, OH, USA",36,4.9,133,177,200,,,,,5,2,1,apartment,Yes,2011,Within a few hours,100%,"June 9, 2017",apartment,2,,5,,Cleaveland
780315,"Incredible RNC Historic Near Downtown Brownstone Loft Flat! Clinic, University",41.4872839,-81.7660198,"Edgewater, Cleveland, OH, USA",2,,111,120,,,,,,4,2,1,apartment,Yes,2015,Within 12 hours,90%,"June 9, 2017",apartment,,,4,,Cleaveland
870989,"Spacious Carriage house, close to University Circle and hospitals",41.503071,-81.574698,"Cleveland Heights, OH, USA",5,4.6,143,185,,,40,8.0%,2,4,1,2,house,Yes,2016,Within 12 hours,100%,"March 14, 2017",house,,,4,,Cleaveland
632602,"Downtown CLE #1 - Modern Condo, Walk to Convention Center, The Q & Restaurants",41.500168,-81.6980725,"Downtown, Cleveland, OH, USA",32,4.6,155,155,185,,,,1,2,1,1,condo,Yes,2014,Within a day,100%,"June 9, 2017",condo,2,750,2,,Cleaveland
617855,Modern Mid-Century uniqueness.,41.488836,-81.576958,"Cleveland Heights, OH, USA",27,4.9,100,100,120,,,,,4,2,1,house,Yes,2014,Within 2 days,90%,"May 30, 2017",house,,,4,,Cleaveland
673508,Whole House Pleasant Parma,41.39821385,-81.69790966,"Cleveland, OH, USA",14,4.8,225,275,300,,70,,1,18,5,2,house,Yes,2014,Within 12 hours,100%,"June 7, 2017",house,,,18,,Cleaveland
779060,Amazing RNC Historic Near Downtown Loft Apt,41.48665236,-81.7664201,"Edgewater, Cleveland, OH, USA",6,,107,145,,,60,,,6,2,1,house,Yes,2015,Within 12 hours,100%,"June 9, 2017",house,,,6,,Cleaveland
677355,5 Minutes From Downtown Cleveland!!,41.482496,-81.718056,"Detroit - Shoreway, Cleveland, OH, USA",5,4.4,139,109,185,,50,,,10,4,2,condo,No,2015,Within a day,90%,"June 9, 2017",condo,,,10,,Cleaveland
860482,"Warehouse Wonder 2 Bed Port of Cle, Lighthouse and Stadium & Lake Erie-Pvt Deck",41.5013401,-81.7018136,"Downtown, Cleveland, OH, USA",11,,249,199,299,,,8.5%,2,6,2,2,condo,Yes,2013,Within an hour,100%,"June 7, 2017",condo,4,1000,6,building,Cleaveland
4270111ha,"Spectacular Space, 10 minutes from Downtown",41.4382095,-81.6184192,"South Broadway, Cleveland, OH, USA",6,3.8,100,97,,,35,8.5%,1,6,2,2,house,Yes,2016,Within a day,100%,"June 8, 2017",house,,2000,,,Cleaveland
982912,JUST REMODELED top to bottom -  master bed/bath on main floor!,,,"Cleveland Heights, OH, USA",5,,214,225,235,,75,5.5%,3,8,4,,house,Yes,2016,Within a day,100%,"June 9, 2017",house,,,,,Cleaveland
814903,Saratoga #3 Updated Whole House Centrally Located: Cleveland House Hotels,41.432121,-81.696509,"South Hills, Cleveland, OH, USA",10,4.5,133,160,200,,40,,1,8,3,1,house,Yes,2014,Within 12 hours,100%,"June 7, 2017",house,,,8,,Cleaveland
799170,"Newly Renovated, Furnished 5 Bedrooms, 2.5 Bathroom is  close to  Clinic !",41.493673,-81.586051,"Cleveland Heights, OH, USA",5,4.6,250,250,,,180,8.0%,,12,6,2,house,Yes,2015,Within 12 hours,100%,"June 9, 2017",house,,1700,12,,Cleaveland
3894926ha,Warehouse District 1 Bedroom Loft,41.50150531,-81.70287155,"Downtown, Cleveland, OH, USA",7,4.9,144,149,,,,8.5%,2,2,1,1,condo,Yes,2014,Within an hour,100%,"May 29, 2017",condo,3,980,2,building,Cleaveland
596385,Saratoga #2 Whole House Centrally Located In Cleveland,41.432161,-81.696661,"South Hills, Cleveland, OH, USA",10,4.8,133,165,200,,40,,1,8,3,2,house,Yes,2014,Within 12 hours,100%,"June 7, 2017",house,,1300,8,,Cleaveland
847214,Recently Remodeled & Close to Everything!,41.429796,-81.833088,"Cleveland, OH, USA",6,4.8,111,110,,,,,2,6,3,1,house,Yes,2016,Within a few hours,100%,"June 9, 2017",house,,928,6,,Cleaveland
674299,"Cool, Stylish And Near Everything",41.48619112,-81.77773002,"Lakewood, OH, USA",3,4.3,110,99,115,,30,,,5,2,1,house,No,2015,Within a few days,70%,"June 8, 2017",house,,,5,,Cleaveland
815499,Cozy Stone Castle 12 Mins To CWRU/Cleveland Clinic,41.518651,-81.534978,"South Euclid, OH, USA",0,,100,100,,,,,7,3,2,1,apartment,Yes,2016,Within 12 hours,90%,"April 12, 2017",apartment,1,1200,3,house,Cleaveland
4197599ha,Little Italy Cleveland Old World Charm Extended Stay Suites,41.506369,-81.598974,"University Circle, Cleveland, OH, USA",0,,46,65,,,,,28,2,1,1,apartment,Yes,2016,Within a day,100%,"June 1, 2017",apartment,2,600,2,building,Cleaveland
1087893,Gem Stone Villa 2--Less than 15 min to CWRU/Cleveland Clinic!,,,"South Euclid, OH, USA",0,,90,90,,,100,,6,4,2,1,apartment,No,2016,,,"June 5, 2017",apartment,2,,,villa,Cleaveland
1037977,Downtown Cleveland Apartment. 3 bdrm 2 bath. 15 min walk to Quicken Loans arena,41.509369,-81.67963759,"Downtown, Cleveland, OH, USA",0,,167,300,,,100,8.0%,2,10,3,2,apartment,Yes,2017,Within 12 hours,100%,"June 9, 2017",apartment,1,1250,10,building,Cleaveland
953049,"E 89th, Cleveland Historic District",41.509213,-81.624398,"Hough, Cleveland, OH, USA",4,4.8,183,195,,,39,,,10,5,2,house,Yes,2016,Within 12 hours,100%,"June 6, 2017",house,,2300,10,,Cleaveland
759707,Cozy and Centrally Located!,41.474249,-81.7753,"Lakewood, OH, USA",1,,89,79,99,,,,,3,1,1,apartment,No,2015,Within a few days,60%,"June 4, 2017",apartment,,,3,,Cleaveland
275386,3 BR  2.5 BA House in Shaker's Fernway area 15 min. from Cleveland Clinic + U.H.,41.466988,-81.552409,"Shaker Heights, OH, USA",2,,127,,,,120,,7,6,3,2,house,Yes,2008,Within a few hours,90%,"May 17, 2017",house,,2200,6,,Cleaveland
814401,4 Bedroom Home In Great Neighborhood Close To Downtown,41.498443,-81.574883,"Cleveland Heights, OH, USA",0,,200,215,,,,,3,8,4,2,house,Yes,2016,Within 12 hours,100%,"June 2, 2017",house,,2100,8,,Cleaveland
4268472ha,3bd+Den -Brand New Modern Home in Heart of Tremont,41.4781433,-81.6820416,"Tremont, Cleveland, OH, USA",2,,317,350,400,,,8.5%,2,6,3,2,house,Yes,2016,Within an hour,100%,"June 9, 2017",house,,2250,6,,Cleaveland
657258,Pleasant Parma (Upper) Close to all major highways and 15 minutes to downtown,41.398407,-81.697738,"Parma, OH, USA",9,,125,150,175,,35,,1,8,3,1,apartment,Yes,2014,Within a day,90%,"June 7, 2017",apartment,2,1000,8,building,Cleaveland
676851,5 minutes from Downtown!!,41.482496,-81.718056,"Detroit - Shoreway, Cleveland, OH, USA",4,,143,125,165,,,,,8,3,1,condo,No,2015,Within a few days,70%,"June 9, 2017",condo,,,8,,Cleaveland
936822,"2 Bedroom, full kitchen and bath, 2 full futon beds.  Great location w/ options.",41.4789363,-81.7404134,"Detroit - Shoreway, Cleveland, OH, USA",1,,49,60,,,,,,4,2,1,house,No,2016,Within an hour,90%,"June 7, 2017",house,,900,4,,Cleaveland
4470454ha,Fabulous Five Bedrooms Home,,,"Garfield Heights, OH, USA",0,,179,150,200,,150,8.0%,,14,5,2,house,Yes,2016,Within 12 hours,100%,"June 9, 2017",house,,2500,,,Cleaveland
4052154ha,"Cozy 4 Bedroom 1,5 Bathroom House, Ready  For Rnc",41.497663,-81.571797,"Cleveland Heights, OH, USA",2,,250,250,,,,8.0%,2,10,5,1,house,Yes,2015,Within a few hours,100%,"June 9, 2017",house,,,10,,Cleaveland
4211736ha,Beautifully rehabbed Ohio City home,41.48134,-81.721613,"Detroit - Shoreway, Cleveland, OH, USA",2,,286,300,,,,,3,8,3,2,house,No,2016,Within a few hours,100%,"April 8, 2017",house,,,8,,Cleaveland
1085510,Gem Stone Villa 1-- Less than 15 min to CWRU/Cleveland Clinic,,,"South Euclid, OH, USA",0,,90,90,,,100,,6,4,2,1,apartment,No,2016,,,"June 5, 2017",apartment,1,,,villa,Cleaveland
4354746ha,2 BR Historic Charm in Cleveland's Ohio City,,,"Ohio City, Cleveland, OH, USA",0,,119,119,,,10,5.0%,,4,2,1,house,Yes,2016,Within a few hours,100%,"March 30, 2017",house,,1192,4,,Cleaveland
623898,"Duplex Downstairs, Great Neighborhood, close to all Highways",41.3984304,-81.6980746,"Parma, OH, USA",4,,117,125,150,,35,,1,8,2,1,apartment,Yes,2014,Within 12 hours,90%,"June 7, 2017",apartment,1,1300,8,building,Cleaveland
4172922ha,Beautiful Townhouse With Lake View In Clevelands Best Neighborhood,41.4866569,-81.7359602,"Detroit - Shoreway, Cleveland, OH, USA",0,,667,799,,,,8.0%,2,4,2,3,townhome,Yes,2016,Within a day,90%,"June 3, 2017",townhome,,1700,4,,Cleaveland
893665,Only 5 miles from CLE,41.481803,-81.780725,"Lakewood, OH, USA",1,,142,170,,,,,2,6,2,1,apartment,No,2016,Within an hour,100%,"June 9, 2017",apartment,,,6,,Cleaveland
952550,Cozy House In An Extraordinaire Neighborhood,41.497634,-81.594897,"University Circle, Cleveland, OH, USA",1,,190,210,260,,80,8.0%,2,9,4,3,house,Yes,2016,Within a few days,100%,"June 3, 2017",house,,2000,9,,Cleaveland
869053,Minutes from downtown CLE RNC 2016 Condo Rental,41.4929344,-81.7056735,"Ohio City, Cleveland, OH, USA",0,,714,500,,,,,,4,2,2,condo,No,2016,Within 2 days,80%,"June 3, 2017",condo,,,,,Cleaveland
888740,Beautiful 4BR RNC rental - 20 minutes from downtown in Rocky River,41.482621,-81.848381,"Cleveland, OH, USA",1,,829,,,,,,7,6,4,4,house,No,2016,Within a few days,60%,"March 23, 2017",house,,,6,,Cleaveland
4327314ha,"Cleveland OH, In the Heart of Downtown Full Service Luxury 1 and 2 Bedroom Loft Apartments with Kitchen and WiFi    - 1 Bedroom - BST",41.499079,-81.701629,"Downtown, Cleveland, OH, USA",0,,361,,,,,,2,2,1,1,apartment,No,2016,Within an hour,,"June 9, 2017",apartment,,950,,,Cleaveland
4330852ha,"Cleveland - Nana's Puritas House 11 miles to downtown, 5 to Hopkins, 1 to train.",41.433143,-81.785223,"Cleveland, OH, USA",0,,58,69,,,,,2,4,1,1,house,No,2016,Within 2 days,90%,"June 9, 2017",house,,,4,,Cleaveland
1021242,W. 47th Beautifully Updated Ohio City Home,,,"Detroit - Shoreway, Cleveland, OH, USA",1,,129,150,175,,30,,1,6,2,1,house,Yes,2014,Within a day,100%,"June 7, 2017",house,,800,6,,Cleaveland
196347,4 BR 2  BA-/15 min.to Univ. Circle + Clinic/ Rapid to Cleveland's Downtown,41.463485,-81.54713,"Shaker Heights, OH, USA",3,4.7,128,100,,,140,,7,5,4,2,house,Yes,2008,Within 12 hours,100%,"June 2, 2017",house,,,5,,Cleaveland
669717,Republican National Convention Week - Spacious 4 Bedroom Home,41.4620499,-81.8142132,"Kamm's Corners, Cleveland, OH, USA",0,,,1,,,,6.75%,4,8,4,3,house,Yes,2015,Within 2 days,90%,"March 15, 2016",house,,3100,8,,Cleaveland
779057,Amazing Hip Historic Near Downtown Apt Flat!,41.4872839,-81.7660198,"Edgewater, Cleveland, OH, USA",0,,90,82,,,,,,4,2,1,apartment,Yes,2015,Within 12 hours,100%,"June 9, 2017",apartment,,,4,,Cleaveland
817156,Cleveland Home- 10 Min From RNC!,41.464642,-81.802496,"Kamm's Corners, Cleveland, OH, USA",0,,,1,,,,,4,8,3,2,house,Yes,2016,,,"January 30, 2016",house,,,8,,Cleaveland
828133,Beautiful Century Home Minutes from Downtown - RNC,41.483967,-81.719218,"Detroit - Shoreway, Cleveland, OH, USA",0,,294,270,,,60,3.0%,2,7,5,2,house,Yes,2016,Within 12 hours,100%,"June 9, 2017",house,,3000,7,,Cleaveland
4155280ha,"5 minutes from downtown, RNC Ready",41.4590273,-81.71102242,"Cleveland, OH, USA",0,,500,500,,,,,5,7,3,1,house,No,2016,,,"March 5, 2016",house,,,7,,Cleaveland
831551,Cleveland Colonial- 15 Minutes from RNC; 10 minutes from airport,41.4604799,-81.812977,"Kamm's Corners, Cleveland, OH, USA",1,,350,350,,,,,,7,3,2,house,No,2016,,0%,"May 31, 2017",house,,,7,,Cleaveland
863659,"Destination RNC - Large House In Ohio City, Cleveland",41.48625455,-81.70634617,"Ohio City, Cleveland, OH, USA",0,,,7,,,,,6,20,10,5,house,Yes,2016,,,"May 14, 2016",house,,5500,20,,Cleaveland
870130,"RNC Luxurious,  Modern Home",41.451718,-81.842545,"Kamm's Corners, Cleveland, OH, USA",0,,,1,,,100,,3,6,3,2,house,No,2016,Within a few days,40%,"May 24, 2016",house,,,6,,Cleaveland
872745,RNC Rental.  Single Family Home.  Close To Downtown And On The Bus / RTA Route.,,,"Tremont, Cleveland, OH, USA",0,,,1,,,,,5,5,2,1,house,No,2016,,,"May 31, 2016",house,,,5,,Cleaveland
4223335ha,Republican National Convention 10 minutes away. Quiet neighborhood. $5800 weekly,41.444501,-81.733374,"Old Brooklyn, Cleveland, OH, USA",0,,929,800,,,200,8.0%,5,6,3,2,house,No,2016,Within a few days,33%,"August 4, 2016",house,,1200,6,,Cleaveland
874046,RNC Downtown Cleveland  Penthouse 2bed/2bath,41.49934731,-81.70104513,"Downtown, Cleveland, OH, USA",0,,586,1,,,,,5,6,2,2,apartment,No,2016,Within a few days,70%,"May 14, 2017",apartment,,,6,building,Cleaveland
846032,Brand New Townhome 2 Bedroom/2 Bath - Perfect For The Rnc!,41.51549,-81.60226577,"University Circle, Cleveland, OH, USA",0,,,1,,,,,4,6,2,2,townhome,Yes,2016,Within a few days,70%,"December 5, 2016",townhome,,,6,,Cleaveland
878850,3 bed 2 1/2 bath townhouse  totally redone 5 minutes to downtown Cleveland.,41.5600574,-81.5940153,"Cleveland, OH, USA",0,,571,600,,,,7.0%,5,6,3,,townhome,No,2016,Within 12 hours,80%,"June 14, 2016",townhome,1,1800,6,building,Cleaveland
880078,Luxery Waterfront Apartment - 1 Bedroom W/ City View & Balcony,41.4999477,-81.7065028,"Downtown, Cleveland, OH, USA",0,,714,900,,,,,4,2,1,1,apartment,No,2016,Within a few days,10%,"June 16, 2016",apartment,,,2,,Cleaveland
886831,Cleveland RNC rental,41.516367,-81.557586,"Cleveland Heights, OH, USA",0,,700,700,,,,4.0%,5,6,3,1,house,No,2016,,0%,"June 30, 2016",house,,,6,,Cleaveland
889662,RNC Conference Apartment Special!!!!!,41.49962484,-81.70496131,"Downtown, Cleveland, OH, USA",0,,500,500,,,25,8.0%,4,2,1,1,apartment,Yes,2016,Within a few days,40%,"September 5, 2016",apartment,,,,,Cleaveland
870997,"Historic Home, Close to University Circle and Hospitals",41.503071,-81.574698,"Cleveland Heights, OH, USA",0,,,2,,,150,8.0%,4,6,3,4,house,Yes,2016,Within a day,100%,"November 13, 2016",house,,4000,6,,Cleaveland
4298942ha,Downtown Cleveland's Newest Centrally Located Luxury 1 and 2 Bedroom Apartments     - 1 Bedroom - BST,41.499597,-81.688392,"Downtown, Cleveland, OH, USA",0,,221,,,,,,2,2,1,1,apartment,Yes,2016,Within an hour,,"June 9, 2017",apartment,,1000,2,,Cleaveland
977622,"Beautiful Colonial Home on Quiet Street, Minutes from University Circle",,,"Cleveland Heights, OH, USA",0,,294,300,,,100,,4,8,4,3,house,Yes,2016,Within 2 days,100%,"June 1, 2017",house,,2000,8,,Cleaveland
980637,Quiet 3 Bed Home Close to University Circle,41.5081918,-81.555012,"Cleveland Heights, OH, USA",0,,167,150,,,75,,4,4,3,1,house,Yes,2016,Within a day,90%,"April 26, 2017",house,,1332,4,,Cleaveland
987319,Gorgeous Forest Hill Ranch Home - 5 Minutes to University Circle,,,"Cleveland Heights, OH, USA",0,,234,275,,,100,,5,7,4,2,house,Yes,2016,Within a few days,75%,"May 15, 2017",house,,2500,7,,Cleaveland
1001415,"Cozy Bungalow on a Family-Friendly Street, Short Walk to Dining/Shopping/Yoga!",,,"Cleveland Heights, OH, USA",0,,180,200,,,75,,4,5,4,2,house,Yes,2016,Within a few days,83%,"April 16, 2017",house,,,5,,Cleaveland
4496630ha,Residences at 668 - 2 Bedroom - BST,41.499597,-81.688392,"Downtown, Cleveland, OH, USA",1,,,,,,,,2,4,2,2,apartment,Yes,2014,Within an hour,,"June 9, 2017",apartment,,1436,4,,Cleaveland
4496637ha,BridgeStreet at the Bingham - 1 Bedroom - BST,41.499079,-81.701629,"Downtown, Cleveland, OH, USA",0,,361,,,,,,2,2,1,1,apartment,No,2014,Within an hour,,"June 9, 2017",apartment,,950,,,Cleaveland
4496638ha,BridgeStreet at the Bingham - 2 Bedroom - BST,41.499079,-81.701629,"Downtown, Cleveland, OH, USA",0,,383,,,,,,2,4,2,2,apartment,No,2014,Within an hour,,"June 9, 2017",apartment,,1100,,,Cleaveland
1063373,Gorgeous 2BR Townhouse In The Heart Of Ohio City,41.4781715,-81.7143247,"Ohio City, Cleveland, OH, USA",0,,76,84,,,100,,3,3,2,1,townhome,No,2017,Within a day,100%,"June 8, 2017",townhome,,,,,Cleaveland
1065991,Detroit Shoreway House Close to Edgewater,,,"Detroit - Shoreway, Cleveland, OH, USA",0,,95,95,,,35,,3,4,2,1,house,No,2017,Within a few days,80%,"May 23, 2017",house,,,,,Cleaveland
4556039ha,Comfy apartment in a calm and quiet street,,,"Cleveland, OH, USA",0,,50,50,,,75,,7,5,3,1,apartment,Yes,2016,,,"June 9, 2017",apartment,2,,,building,Cleaveland
4277884ha,Charming Condo in Olmsted Falls 15 Min from CLE Airport,41.38949081,-81.94077119,"North Olmsted, OH, USA",1,,100,109,,,75,,3,5,2,2,condo,Yes,2016,Within 12 hours,90%,"June 6, 2017",condo,1,600,5,building,Cleaveland
825755,Beautiful Chagrin River Waterfront,41.600676,-81.405942,"Willoughby Hills, OH, USA",17,,232,225,250,,,,2,6,3,3,house,Yes,2016,Within an hour,90%,"June 4, 2017",house,,2400,6,,Cleaveland
868798,Quiet Space Nice Yard by Lake Erie Private Beach & Sunsets Delicious Breakfast,41.507422,-82.037772,"Avon Lake, OH, USA",13,4.9,71,79,,,,9.5%,,5,2,1,house,Yes,2016,Within an hour,100%,"June 9, 2017",house,,1800,5,,Cleaveland
614976,Private 13 Acre Horse Farm With Luxury Guest House,41.249878,-81.729104,"Hinckley, OH, USA",30,,195,195,,,,,2,4,2,1,farmhouse,Yes,2014,Within 12 hours,100%,"June 7, 2017",farmhouse,,1200,4,,Cleaveland
801402,Only Steps Away From Downtown Chagrin Falls. Don't Miss This Opportunity.,41.4323986,-81.3945728,"Chagrin Falls, OH, USA",2,,214,185,200,,100,,2,6,3,2,house,Yes,2016,Within a few hours,100%,"June 9, 2017",house,,1400,6,,Cleaveland
787315,Fully Furnished Rental Property.,41.415538,-81.483738,"Solon, OH, USA",8,,129,171,206,,,5.5%,3,8,4,3,house,Yes,2015,Within an hour,100%,"June 8, 2017",house,,3000,8,,Cleaveland
4276300ha,"Quiet, Comfortable, Country House In Hinckley. 30 Minutes To Cleveland And Akron",41.23430075,-81.75493758,"Hinckley, OH, USA",7,4.7,132,114,129,,,,2,8,3,2,house,Yes,2016,Within a few hours,90%,"June 7, 2017",house,,,8,,Cleaveland
4134024ha,Everything You Need !!,41.51053472,-81.450717,"Mayfield Heights, OH, USA",4,,47,,,,50,,90,2,1,1,condo,Yes,2016,Within a few hours,90%,"May 22, 2017",condo,3,800,2,building,Cleaveland
3935448ha,Chagrin Valley Contemporary Cottage,,,"Novelty, OH, USA",2,,149,149,,,,,1,6,1,1,cottage,Yes,2016,Within a day,100%,"June 9, 2017",cottage,,1000,,,Cleaveland
557120,Romantic Park-Like Setting,41.594267,-81.427723,"Willoughby Hills, OH, USA",16,4.6,164,165,,,,,2,5,3,2,farmhouse,Yes,2014,Within a few hours,100%,"June 9, 2017",farmhouse,,3000,5,,Cleaveland
953326ha,"Newly updated!Charming Country Living Richfield, OH",41.250022,-81.637541,"Richfield, OH, USA",12,3.8,193,200,225,,35,,4,8,4,2,house,No,2012,Within a day,90%,"May 15, 2017",house,,2200,8,,Cleaveland
4151727ha,"Country Living Cleveland, Akron - pet friendly house -",41.251381,-81.639141,"Richfield, OH, USA",5,4.6,157,150,200,,50,,4,7,4,2,house,No,2012,Within a few hours,100%,"May 31, 2017",house,,,7,,Cleaveland
894727,Designer House Overlooking Serene Metropark,41.245787,-81.6245129,"Richfield, OH, USA",1,,250,250,,,100,,2,8,3,2,house,Yes,2016,Within a day,100%,"May 30, 2017",house,,2500,8,,Cleaveland
4299137ha,Downtown Chagrin Falls Century Townhome,,,"Chagrin Falls, OH, USA",6,,99,125,,,,,1,6,2,1,townhome,Yes,2016,Within a day,100%,"June 9, 2017",townhome,,1200,,building,Cleaveland
771366,"Suburban escape- Spacious, Modern Ranch Perfect for your CLE visit!",41.332474,-81.8642799,"Strongsville, OH, USA",2,,214,,,,,4.0%,6,4,3,2,house,Yes,2015,Within 2 days,100%,"June 5, 2017",house,,2200,4,,Cleaveland
4463219ha,Luxury Three Bedrooms Garden-Style Townhouse,,,"North Royalton, OH, USA",0,,182,85,150,,150,8.0%,,6,3,1,condo,Yes,2016,Within a day,100%,"June 9, 2017",condo,1,1200,,house,Cleaveland
735930,A Romantic Getaway Or Artist Retreat,41.593899,-81.427438,"Willoughby Hills, OH, USA",1,,126,125,,,50,,2,2,1,1,cottage,Yes,2014,Within 12 hours,100%,"June 9, 2017",cottage,,800,2,,Cleaveland
4288689ha,Your Own Home Away From Home,,,"Berea, OH, USA",0,,145,145,,,75,5.5%,3,8,3,1,house,No,2016,Within a few days,70%,"May 30, 2017",house,,,,,Cleaveland
4496645ha,The Vue - Cleveland - Two Bedroom,41.463929,-81.515888,"Beachwood, OH, USA",0,,308,,,,,,2,4,2,2,apartment,No,2014,Within an hour,,"June 9, 2017",apartment,,1173,,,Cleaveland
1077572,Beautiful Home For Short Or Long Term Stay,,,"Parma Heights, OH, USA",0,,135,135,,,125,8.0%,,4,2,1,house,No,2017,,,"June 1, 2017",house,,,,,Cleaveland
800681,"Beautiful, huge historic home 20 minutes from the convention!  ~Wonderful place~",41.620837,-81.501729,"Euclid, OH, USA",0,,,300,,,200,5.0%,5,18,6,3,house,Yes,2016,,,"May 24, 2016",house,,3800,18,,Cleaveland
732764,2016 Republican National Convention - Home - 4BDRM 3.5 Baths (Off I-90),41.483231,-81.989463,"Avon Lake, OH, USA",0,,857,,,,,6.5%,7,12,4,3,house,Yes,2015,,0%,"June 26, 2015",house,,3000,12,,Cleaveland
4160503ha,This property is no longer available.,41.3828306,-81.40253931,"Solon, OH, USA",0,,714,,,,,7.0%,7,20,5,6,estate,No,2016,Within a few days,20%,"June 8, 2016",estate,,,20,,Cleaveland
776847,Luxury Home Great for Entertaining the RNC - In-ground Pool - close to Cleveland,,,"Twinsburg, OH, USA",0,,,1,,,,7.5%,3,10,4,3,house,Yes,2016,Within a few days,40%,"February 4, 2017",house,,2700,10,,Cleaveland
856589,"Luxury RNC Home in the safest, most desirable suburb of Cleveland's West Side",41.457463,-81.957157,"Westlake, OH, USA",0,,467,,,,,8.5%,30,8,4,3,house,Yes,2016,Within a few days,80%,"April 28, 2016",house,,3600,8,,Cleaveland
776568,"Family friendly, 5 BR, 3.5 Bath, Close to I-71, 22 mi from downtown Cleveland",41.32214672,-81.86148524,"Strongsville, OH, USA",0,,,3,,,,,4,18,5,3,house,Yes,2016,Within a few days,50%,"April 27, 2017",house,,3600,18,,Cleaveland
887721,Perfect for RNC Spacious home,41.49421,-81.499157,"Beachwood, OH, USA",0,,,1,,,,,7,16,5,6,house,Yes,2016,Within a few days,10%,"November 5, 2016",house,,,16,,Cleaveland
4288685ha,Your Home Away From Home,41.359651,-81.876237,"Berea, OH, USA",0,,145,145,,,75,5.5%,3,8,3,1,house,No,2016,Within 2 days,87%,"May 30, 2017",house,,,,,Cleaveland
4274537ha,"Beautiful Vacation Home for You to Live, Love n Laugh: Chill Out n Rock 'n' Roll",,,"North Royalton, OH, USA",0,,213,140,200,,150,3.0%,1,6,3,1,house,Yes,2016,Within a few hours,100%,"June 9, 2017",house,,1800,,,Cleaveland
4299225ha,Heart Of Chagrin-1 Bed W Garage,,,"Chagrin Falls, OH, USA",0,,100,100,,,,,,4,2,1,apartment,No,2016,Within a few days,90%,"June 9, 2017",apartment,1,500,4,building,Cleaveland
4335600ha,"900 Sq Ft, Vaulted Greatroom, Spots (Wet) Bar, Luxurious, Hardwood Flooring",,,"Strongsville, OH, USA",0,,,75,,,100,10.0%,180,6,3,2,house,No,2016,,,"November 7, 2016",house,,,,,Cleaveland
4463261ha,Georgous Home 4 U n Your Pets,,,"North Royalton, OH, USA",0,,91,80,100,,150,8.0%,,6,2,1,condo,Yes,2016,Within an hour,100%,"June 9, 2017",condo,1,1000,,building,Cleaveland
4463291ha,Lucky Two Bedrooms  Garden Condo,,,"North Royalton, OH, USA",0,,85,85,,,75,8.0%,,6,2,1,condo,No,2016,Within a few hours,100%,"June 9, 2017",condo,,,,,Cleaveland
4463126ha,"Beachwood's Newest Upscale Metropolitan Community- Luxurious, Modern Condos- Heated Underground Parking",41.463929,-81.515888,"Beachwood, OH, USA",0,,308,,,,,,2,4,2,2,apartment,No,2016,Within an hour,,"June 9, 2017",apartment,,1173,,,Cleaveland
1076030,The Clubhouse Of In The Heart Of Chagrin Falls.,,,"Chagrin Falls, OH, USA",0,,240,240,,,100,7.0%,3,5,3,1,house,No,2017,,,"May 20, 2017",house,,,,,Cleaveland
3718876ha,JV3 - JARVIS VILLAS  West Blvd Villa / Downtown & Edgewater Park / Full Service,41.4870034,-81.7516053,"Detroit - Shoreway, Cleveland, OH, USA",2,4.5,500,550,,,,,2,18,6,2,house,Yes,2014,Within an hour,100%,"June 4, 2017",house,,,18,,Cleaveland
3876930ha,JV5 - JARVIS VILLAS Edgewater Lakefront Park & Downtown Cleveland / Full Service,41.4870034,-81.7516053,"Detroit - Shoreway, Cleveland, OH, USA",3,,500,550,,,,,2,18,5,2,house,Yes,2014,Within an hour,100%,"June 4, 2017",house,,2100,18,,Cleaveland
765586,Great Single Family Home for Rent During RNC,41.487878,-81.5592549,"Cleveland Heights, OH, USA",0,,,,,,,8.0%,,8,4,1,house,No,2015,Within a few days,40%,"October 7, 2015",house,,,8,,Cleaveland
4218173ha,Beautiful Furnished Home- 4 Bedroom 2 Bath for RNC,41.405271,-81.76418,"Parma, OH, USA",0,,,,,,130,,,12,4,2,house,Yes,2016,,0%,"May 22, 2016",house,,,12,,Cleaveland
4230618ha,2 bedroom 2 bath condo on the lake for the Republican National Convention (RNC),41.4937548,-81.780298,"Lakewood, OH, USA",0,,,,,,,,,4,2,2,condo,No,2016,Within a few days,10%,"June 12, 2016",condo,,,4,,Cleaveland
883270,Updated home minutes from Downtown and walkable to many area top restaurants,41.4723479,-81.78883,"Lakewood, OH, USA",0,,,,,,,8.0%,,6,3,1,house,Yes,2016,,0%,"June 24, 2016",house,,1300,6,,Cleaveland
4245878ha,Rnc Availability!  Comfortable Apartment With Recording Studio In Trendy Are,41.4855266,-81.7361215,"Detroit - Shoreway, Cleveland, OH, USA",0,,,,,,250,,,4,1,1,apartment,No,2016,,,"July 4, 2016",apartment,,,4,,Cleaveland
887852,Exclusive High-end Private Luxury Condo...1 Mile From Rnc!,41.48603824,-81.71157445,"Ohio City, Cleveland, OH, USA",0,,,,,,,,,4,2,2,condo,No,2016,Within a few days,50%,"July 4, 2016",condo,1,2000,4,building,Cleaveland
888649,"Luxury 1 Bedroom Loft with Parking included, Walking Distance to RNC",41.4975673,-81.6985217,"Downtown, Cleveland, OH, USA",0,,,,,,,,,4,1,1,apartment,No,2016,,0%,"July 6, 2016",apartment,,,4,,Cleaveland
890704,Multi-Level Rental Condo In Downtown Cleveland For RNC,41.48137781,-81.71878323,"Detroit - Shoreway, Cleveland, OH, USA",0,,,,,,,,,6,2,3,condo,No,2016,Within a few days,20%,"July 10, 2016",condo,,,6,,Cleaveland
394344,Historic House in National Park Access to Scenic Hiking Trails,41.27374649,-81.56251526,"Peninsula, OH, USA",13,4.9,650,600,900,,,,2,31,9,3,farmhouse,Yes,2012,Within a few days,80%,"April 13, 2017",farmhouse,,,31,,Cleaveland
4160097ha,Charming 3 Bedroom Cape. Perfect For National Republican Convention Attendees.,41.521352,-81.480187,"Lyndhurst, OH, USA",0,,,,,,,10.0%,,4,3,1,house,No,2016,Within a few days,30%,"March 22, 2016",house,,,4,,Cleaveland
4173805ha,"Beautiful Brick Front Colonial, Prime Location For During RNC",41.388771,-81.491161,"Bedford, OH, USA",0,,,,,,,,,7,4,2,house,Yes,2016,,,"April 2, 2016",house,,2500,7,,Cleaveland
1004585,"Comfortable, Renovated Cottage Home - Cleveland West - Lakewood",41.472696,-81.8004744,"Lakewood, OH, USA",1,,98,99,,,75,,4,4,2,1,house,Yes,2017,Within a few days,40%,"May 3, 2017",house,,1000,4,,Cleaveland
851205,Luxury Living Minutes From Downtown Cleveland,,,"Cleveland, OH, USA",0,,650,650,,,,,,8,2,3,house,No,2016,Within a day,100%,"June 7, 2017",house,,,8,,Cleaveland
852987,Cleveland Clinic & University Circle Classics,41.48153449,-81.58845651,"Cleveland, OH, USA",0,,149,149,,,,,5,4,3,2,apartment,Yes,2016,Within a few days,10%,"June 6, 2017",apartment,1,,4,building,Cleaveland
918450,6 BR/ 2 Baths House--15 Minutes From Airport---15 Minutes To Downtown Cleveland,,,"Parma, OH, USA",0,,760,550,,,250,15.0%,3,16,6,2,house,Yes,2016,Within 2 days,100%,"May 12, 2017",house,,2100,16,,Cleaveland
4216114ha,Strongsville Ohio -Cleveland Suburb new construction,41.3363717,-81.7860123,"Strongsville, OH, USA",0,,463,599,,,,7.0%,3,8,3,2,house,Yes,2016,Within a day,100%,"November 17, 2016",house,,,8,,Cleaveland
4131373ha,Clean and Cozy River Front Cottage,41.59770877,-81.39299816,"Willoughby Hills, OH, USA",0,,145,145,,,,,5,3,1,2,house,No,2016,Within a few days,10%,"May 21, 2017",house,,,3,,Cleaveland
1034198,"Luxury Home in Safe Neighborhood, 15 min to Airport & Downtown, 5 min to Beach!",,,"Westlake, OH, USA",0,,499,499,,,150,5.5%,4,10,4,4,house,No,2016,Within a few days,70%,"April 19, 2017",house,,,,,Cleaveland
894237,Country Living - 15 Mins To Airport,41.320005,-81.858908,"Strongsville, OH, USA",0,,139,159,,,,,2,5,2,1,house,Yes,2016,Within a few hours,100%,"April 4, 2017",house,,1000,5,,Cleaveland
828514,"Large New Home, Great for Families! Early Booking Discount for Summer '17!",,,"Olmsted Falls, OH, USA",0,,471,499,,,150,5.5%,5,10,5,3,house,No,2016,Within an hour,100%,"May 15, 2017",house,,4100,10,,Cleaveland
876449,**VIP PENTHOUSE LOFT In Downtown Cleveland W/ Views -- Ultimate Luxury**,41.4999477,-81.7065028,"Downtown, Cleveland, OH, USA",1,,,,,,,,,4,1,1,apartment,No,2016,Within a few days,60%,"January 18, 2017",apartment,8,1200,4,building,Cleaveland
