listing_id,listing_title,latitude,longitude,location_name,number_reviews,average_rating,average_nightly_price,nightly,weekend_night,property_protection_fee,cleaning_fee,tax_rate,min_stay,sleeps,bedrooms,bathrooms,property_type,internet,member_since,response_time,response_rate,calendar_last_updated,type,floor,sq_footage,max_occupancy,building_type,city
659476,"Plush, Furnished 2 BR Silicon Valley Corporate Suite",37.36026516,-121.9867304,"Santa Clara, CA, USA",6,4.5,200,215,,,,,5,5,2,1,apartment,Yes,2009,Within an hour,100%,"May 9, 2017",apartment,3,1050,5,building,Santa Clara
885133,Beautiful Santa Clara Cottage,37.3449273,-121.9453909,"Santa Clara, CA, USA",7,,165,165,,,50,11.5%,2,4,1,1,cottage,Yes,2016,Within a few hours,100%,"June 6, 2017",cottage,,480,4,,Santa Clara
935103ha,Deluxe Condo Conveniently Located in San Jose's Upscale Santana Row Neighborhood,37.3222528,-121.9472191,"Central San Jose, San Jose, CA, USA",26,,179,189,,,,,2,4,Studio,1,condo,Yes,2011,Within 12 hours,100%,"May 26, 2017",condo,2,736,4,building,Santa Clara
4011807ha,LD: Executive Luxury in Santa Clara,37.40077,-121.948002,"North San Jose, San Jose, CA, USA",4,3.8,406,339,,,175,9.5%,3,7,3,3,townhome,Yes,2013,Within an hour,100%,"June 6, 2017",townhome,1,1700,7,house,Santa Clara
894671,Contemporary+Clean 2Br Flat For Biz Or Leisure W/ Pool/Spa/Gym/WiFi & More,37.40494774,-121.93199828,"North San Jose, San Jose, CA, USA",2,,242,269,,,69,14.0%,2,6,2,2,apartment,Yes,2013,Within a few days,30%,"March 21, 2017",apartment,,1100,,building,Santa Clara
895147,Sunnyvale Luxury at Avalon 1042,37.38871036,-121.99423898,"Sunnyvale, CA, USA",0,,190,,,,,,4,6,2,2,apartment,Yes,2014,Within a few hours,,"June 7, 2017",apartment,1,1050,6,,Santa Clara
4268871ha,Lovely Studio Apartment,37.3696653,-121.9807777,"Santa Clara, CA, USA",1,,123,100,,,,8.75%,,2,1,1,studio,Yes,2016,Within a few hours,90%,"June 5, 2017",studio,1,300,2,house,Santa Clara
735313,Clean & Bright Biz-Travel Studio Urban Flat @SJ,37.40495,-121.9319956,"North San Jose, San Jose, CA, USA",2,3.5,199,169,189,,79,14.0%,1,2,Studio,1,apartment,Yes,2013,Within a few days,20%,"May 7, 2017",apartment,,500,,building,Santa Clara
735314,Modern & Clean Studio Urban Flat @Aire @SanJose,37.40495,-121.9319956,"North San Jose, San Jose, CA, USA",2,4.5,204,169,,,49,14.0%,2,2,Studio,1,apartment,Yes,2013,Within a few days,60%,"April 8, 2017",apartment,,500,,building,Santa Clara
909817,Newly built modern Santa Clara living in the middle of it all!,37.35293426,-121.9856697,"Santa Clara, CA, USA",0,,187,,,,,,4,6,2,2,apartment,Yes,2014,Within a few hours,,"June 7, 2017",apartment,2,885,6,,Santa Clara
894669,Contemporary + Clean 2Br Flat For Biz Or Leisure W/ Pool/Spa/Gym/Wifi & More,37.40495,-121.9319956,"North San Jose, San Jose, CA, USA",1,,239,219,249,,69,14.0%,2,6,2,2,apartment,Yes,2013,Within a few days,60%,"June 1, 2017",apartment,,1100,,building,Santa Clara
1055395,Fully Furnished Condo,37.3620091,-121.9637889,"North San Jose, San Jose, CA, USA",0,,133,133,,,75,,30,4,2,2,condo,No,2017,,,"June 1, 2017",condo,,,,,Santa Clara
580144,Upscale 3BR Rivermark Home near 49ers Stadium&Convention Center,37.398566,-121.95396,"North San Jose, San Jose, CA, USA",28,4.9,388,388,,,200,10.0%,1,6,3,2,townhome,Yes,2014,Within an hour,100%,"June 4, 2017",townhome,,1716,6,,Santa Clara
894657,"Modern + Clean 2BR/2BA Urban Flat w/ Pool, Hot Tub, AC, Parking & More!",37.40495226,-121.93199761,"North San Jose, San Jose, CA, USA",1,,239,219,239,,99,14.0%,1,6,2,2,apartment,Yes,2013,Within a few days,40%,"June 5, 2017",apartment,,700,6,building,Santa Clara
909835,Newly updated Santa Clara luxury apartment home!,37.39895987,-121.94349623,"North San Jose, San Jose, CA, USA",0,,187,,,,,,4,6,2,2,apartment,Yes,2014,Within a few hours,,"June 7, 2017",apartment,3,950,6,,Santa Clara
894675,New & Spacious 2BR/2BA Urban Flat In SV @SanJose,37.40495452,-121.93199493,"North San Jose, San Jose, CA, USA",4,,239,249,259,,,,2,6,2,2,apartment,Yes,2013,Within a few days,20%,"May 29, 2017",apartment,,1100,,building,Santa Clara
894676,Business Or Leisure 2BR/2BA Urban Flat @SanJose,37.40495151,-121.93198957,"North San Jose, San Jose, CA, USA",1,,245,249,259,,,,2,6,2,2,apartment,Yes,2013,Within a few days,50%,"May 26, 2017",apartment,,1100,,building,Santa Clara
3698315ha,Luxury Condo in San Jose's Upscale Santana Row,37.3219338,-121.9482036,"Central San Jose, San Jose, CA, USA",8,4.8,185,,,,100,,2,4,Studio,1,condo,Yes,2011,Within a few hours,100%,"May 30, 2017",condo,2,,4,building,Santa Clara
867951,"Chic Silicon Valley with pool, fitness and tennis courts",37.4154254,-121.9625374,"North San Jose, San Jose, CA, USA",0,,230,,,,,,30,4,2,2,apartment,Yes,2014,Within 12 hours,,"June 2, 2017",apartment,3,1008,4,,Santa Clara
894668,Stylish 1BR in SV @ Aire - Biz x Leisure Friendly,37.40495,-121.9319956,"North San Jose, San Jose, CA, USA",3,3.7,220,149,159,,49,14.0%,2,4,1,1,apartment,Yes,2013,Within a few days,40%,"May 1, 2017",apartment,,800,,building,Santa Clara
920190,Beautiful 1BR/1BA Private Urban Flat in North San Jose!,37.4032771,-121.9411267,"North San Jose, San Jose, CA, USA",0,,202,199,219,,75,14.0%,2,4,1,1,apartment,No,2013,Within a few days,20%,"May 24, 2017",apartment,,,,,Santa Clara
722424,Santana Row Executive Luxury Condo - Silicon Valley - Levi's Stadium,37.32205805,-121.94769614,"Central San Jose, San Jose, CA, USA",29,,186,189,,,99,10.0%,2,4,Studio,1,condo,Yes,2015,Within an hour,100%,"June 4, 2017",condo,2,740,,building,Santa Clara
3947170ha,"TP: 3/2, Close to SAP Ctr, Levi's (see pics for accurate map location)",37.354336,-121.966993,"North San Jose, San Jose, CA, USA",0,,361,299,,,,9.5%,3,8,3,2,house,Yes,2013,Within a few hours,90%,"June 6, 2017",house,,1140,,,Santa Clara
894660,Awesome Tech-Friendly 1BR/1BA in Heart of @SanJose,37.40508636,-121.93173811,"North San Jose, San Jose, CA, USA",3,4.7,223,199,209,,49,14.0%,2,4,1,1,apartment,Yes,2013,Within a few days,40%,"May 10, 2017",apartment,,800,,building,Santa Clara
3744930ha,Contemporary Santana Row Condo (Facing the Row),,,"Central San Jose, San Jose, CA, USA",15,4.9,150,189,,,,,5,4,Studio,1,condo,Yes,2014,Within an hour,100%,"May 10, 2017",condo,2,738,4,,Santa Clara
1001056,Oversized Santa Clara apartment home in serene Summerwoods.,37.335895,-121.962869,"Santa Clara, CA, USA",0,,,,,,,,4,2,2,1,apartment,Yes,2014,Within a few hours,,"June 7, 2017",apartment,,1050,2,,Santa Clara
4424386ha,QL: Luxurious 3brd walk to new Apple,,,"Sunnyvale, CA, USA",0,,375,319,,,175,,3,7,3,2,house,Yes,2013,Within an hour,100%,"June 6, 2017",house,,1232,7,,Santa Clara
799207,"Newly Built 2000Sq Ft. Luxury Home Near SJ Airport, SCU, Shopping, Tech Co.",37.336526,-121.942253,"Central San Jose, San Jose, CA, USA",12,4.8,320,286,,,,10.0%,3,6,3,2,house,Yes,2016,Within 12 hours,100%,"June 6, 2017",house,,2000,6,,Santa Clara
449386,Cozy 3BR/2BA House with Outdoor Living Space Ideally Located in Silicon Valley,37.344087,-121.991227,"Santa Clara, CA, USA",48,4.8,300,300,,,,9.5%,3,7,3,2,house,Yes,2007,Within an hour,100%,"June 5, 2017",house,,1200,7,,Santa Clara
894666,Clean & Modern 1BR/1BA In Luxury San Jose Building,37.40494699,-121.93199493,"North San Jose, San Jose, CA, USA",2,,224,199,219,,75,14.0%,2,4,1,1,apartment,Yes,2013,Within a few days,60%,"May 9, 2017",apartment,,,,building,Santa Clara
851798,Santana Row Luxury Executive Loft,37.3222528,-121.9472191,"Central San Jose, San Jose, CA, USA",6,4.8,240,240,,,130,14.0%,2,5,2,1,apartment,Yes,2016,Within a few hours,100%,"June 5, 2017",apartment,3,1300,5,building,Santa Clara
620962,3 Bdrm + 2.5 Bath Luxury Home 1 mile to Super Bowl 50 Levi's Stadium,37.4009929,-121.9523408,"North San Jose, San Jose, CA, USA",44,,413,288,,,200,10.0%,1,6,3,2,house,Yes,2014,Within a few days,80%,"May 4, 2017",house,,1716,6,,Santa Clara
4401112ha,"Clean Single House 3/2, Big Private Yard, lots of parking area, walk to park",,,"North San Jose, San Jose, CA, USA",2,4.5,326,326,,,150,10.0%,3,6,3,2,house,Yes,2016,Within an hour,100%,"May 28, 2017",house,,1288,6,,Santa Clara
652438,"Chic Stay–Rooftop Pool, Gym, Sweeping View, Central Location",37.3415283,-121.9791985,"Santa Clara, CA, USA",2,,208,,,,,,2,3,1,1,apartment,Yes,2014,Within 12 hours,,"June 2, 2017",apartment,,686,3,,Santa Clara
4024070ha,CL: Luxury Townhome Near Levi's Stadium,37.3879926,-122.0016047,"Sunnyvale, CA, USA",0,,284,249,,,175,,3,5,2,2,townhome,Yes,2013,Within a few hours,100%,"June 6, 2017",townhome,3,1198,5,building,Santa Clara
4286696ha,Luxury Penthouse & Roof Top Terrace in Santana Row,37.3219338,-121.9482036,"Central San Jose, San Jose, CA, USA",1,,515,448,,,300,10.0%,2,10,3,3,condo,Yes,2016,Within a few days,100%,"June 5, 2017",condo,2,2000,,building,Santa Clara
1000647,Newly updated Santa Clara luxury apartment home!,37.3971598,-121.9433028,"North San Jose, San Jose, CA, USA",1,,187,,,,,,4,6,2,2,apartment,Yes,2014,Within a few hours,,"June 7, 2017",apartment,,950,6,,Santa Clara
1000628,Avalon Sunnyvale 1029,37.3874329,-121.9949027,"Sunnyvale, CA, USA",0,,190,,,,,,4,6,2,2,apartment,Yes,2014,Within a few hours,,"June 7, 2017",apartment,,1050,6,,Santa Clara
894656,"Modern, Clean 2BR Urban Flat W/ Pool, Free Parking In Heart Of Silicon Valley",37.40495,-121.9319956,"North San Jose, San Jose, CA, USA",0,,243,229,239,,99,14.0%,2,6,2,2,apartment,Yes,2013,Within a few days,20%,"June 2, 2017",apartment,,1100,,building,Santa Clara
894661,Business or Leisure Travel 1BR/1BA- Pool & Parking,37.40494774,-121.93199493,"North San Jose, San Jose, CA, USA",0,,219,219,,,49,14.0%,2,4,1,1,apartment,Yes,2013,Within a few days,10%,"December 9, 2016",apartment,,800,,building,Santa Clara
4479408ha,La Casa de Alpaca in Santa Clara,37.3959733,-121.9584212,"North San Jose, San Jose, CA, USA",0,,195,195,,,110,9.5%,1,4,2,2,condo,Yes,2017,Within a few hours,90%,"June 2, 2017",condo,4,1152,4,building,Santa Clara
652430,"Sexy Penthouse Levi Stadium Close–Resort Amenities, Walk to Stores",37.395466,-121.944286,"North San Jose, San Jose, CA, USA",0,,215,,,,,,2,5,2,2,apartment,Yes,2014,Within 12 hours,,"June 6, 2017",apartment,,1300,5,,Santa Clara
4462125ha,"AL2: Remarkable Remodeled 3/2 Near SCU, downtown San Jose, SAP Center",,,"Central San Jose, San Jose, CA, USA",0,,335,279,,,175,10.0%,3,7,3,2,apartment,Yes,2013,Within an hour,100%,"June 6, 2017",apartment,2,1300,7,house,Santa Clara
894658,Tech+Biz 1BR Urban Flat in the Silicon Valley @SJ,37.40495301,-121.93199962,"North San Jose, San Jose, CA, USA",1,,219,169,189,,79,14.0%,1,4,1,1,apartment,Yes,2013,Within a few days,40%,"May 27, 2017",apartment,,800,,building,Santa Clara
652434,Centrally Located Near Silicon Valey Corporations,37.387941,-121.993582,"Sunnyvale, CA, USA",1,,165,,,,,,2,3,1,1,apartment,Yes,2014,Within 12 hours,,"June 6, 2017",apartment,,769,3,,Santa Clara
867947,Close to SV High Tech 2/2 with resort like amenities,37.4154254,-121.9625374,"North San Jose, San Jose, CA, USA",0,,119,,,,,,30,4,2,2,apartment,Yes,2014,Within 12 hours,,"June 4, 2017",apartment,1,1008,4,,Santa Clara
884371,Large house in Silicon Valley - 40 min from San Francisco near Levi's Stadium,37.39653,-121.964865,"North San Jose, San Jose, CA, USA",0,,285,350,375,,,9.5%,3,7,4,2,house,Yes,2016,Within 2 days,90%,"June 6, 2017",house,,2400,7,,Santa Clara
1000625,Newly updated Santa Clara luxury apartment home!,37.3996639,-121.9466449,"North San Jose, San Jose, CA, USA",0,,,,,,,,4,6,2,2,apartment,Yes,2014,Within a few hours,,"June 7, 2017",apartment,,961,6,,Santa Clara
4334875ha,"Spectacular 2 Br, 1.5 Ba View Loft in Santana Row!",37.3219338,-121.9482036,"Central San Jose, San Jose, CA, USA",1,,252,,,,,,2,4,2,1,apartment,Yes,2013,Within 2 days,,"June 6, 2017",apartment,,,,,Santa Clara
1010657,Entire Prime Santana Row Condo,37.3219639,-121.9482504,"Central San Jose, San Jose, CA, USA",0,,240,240,,,100,9.0%,2,5,2,1,condo,Yes,2017,Within an hour,100%,"June 3, 2017",condo,3,1200,5,building,Santa Clara
991117,"Charming Room, Great Location!",,,"Santa Clara, CA, USA",4,4.5,68,78,,,40,9.5%,1,2,1,1,house,Yes,2017,Within a few hours,100%,"May 29, 2017",house,,,2,,Santa Clara
867956,"Elevated San Jose Living 2/2 with pool, fitness and tennis",37.4131942,-121.9614695,"North San Jose, San Jose, CA, USA",0,,195,,,,,,2,4,2,2,apartment,Yes,2014,Within 12 hours,,"June 2, 2017",apartment,3,1091,4,,Santa Clara
894679,Spacious 3-Level 2BR/2BA - Prime Silicon Valley!,37.41508812,-121.95461297,"North San Jose, San Jose, CA, USA",2,,225,219,,,69,14.0%,2,6,2,2,apartment,Yes,2013,Within a few days,50%,"June 6, 2017",apartment,,1100,,building,Santa Clara
980737,Santana Row Chic/Cozy 2 bedroom Loft - Silicon Valley - San Jose,37.3219639,-121.9482504,"Central San Jose, San Jose, CA, USA",10,4.5,235,235,248,,110,10.0%,1,5,2,1,condo,Yes,2016,Within a day,90%,"June 6, 2017",condo,3,1100,5,building,Santa Clara
1000600,Avalon Sunnyvale 1056,37.3880568,-121.9948688,"Sunnyvale, CA, USA",0,,190,,,,,,4,6,2,2,apartment,Yes,2014,Within a few hours,,"June 7, 2017",apartment,,1050,6,,Santa Clara
1000651,Sunnyvale Luxury at Avalon 2079,37.388619,-121.995353,"Sunnyvale, CA, USA",0,,190,,,,,,4,6,2,2,apartment,Yes,2014,Within a few hours,,"June 7, 2017",apartment,,1050,6,,Santa Clara
894670,Fully Furnished and Serviced 2BR Urban Flat in SJ!,37.40495,-121.9319956,"North San Jose, San Jose, CA, USA",1,,239,269,,,69,14.0%,2,6,2,2,apartment,Yes,2013,Within a few days,30%,"May 12, 2017",apartment,,1100,,building,Santa Clara
894678,Prime Luxury 2Br Urban Flat for Biz Or Leisure!,37.41216874,-121.96293855,"North San Jose, San Jose, CA, USA",0,,239,239,,,69,14.0%,2,6,2,2,apartment,Yes,2013,Within a few days,20%,"April 12, 2017",apartment,,1100,,building,Santa Clara
894665,Contemporary + Clean 1br Flat For Biz Or Leisure W/ Pool/spa/gym/wifi & More,37.40495,-121.93199493,"North San Jose, San Jose, CA, USA",0,,222,199,219,,49,,2,4,1,1,apartment,Yes,2013,Within a few days,60%,"February 21, 2017",apartment,,800,,building,Santa Clara
919518,Cute house in a premium location in the heart of Silicon Valley,,,"Central San Jose, San Jose, CA, USA",0,,283,285,,,60,,2,5,2,2,house,Yes,2016,Within a few days,80%,"June 5, 2017",house,,1200,5,,Santa Clara
964439,"1 Bed, 1 Bath Luxury Apartment in heart of Silicon Valley",37.4122486,-121.9571712,"North San Jose, San Jose, CA, USA",1,,100,100,,,10,10.0%,,2,1,1,apartment,No,2016,Within a day,90%,"May 26, 2017",apartment,,,,building,Santa Clara
4511925ha,SN: 4bdrm home with 6 separate sleeping areas!,,,"North San Jose, San Jose, CA, USA",0,,461,399,,,175,9.5%,3,9,4,2,house,Yes,2013,Within an hour,100%,"June 6, 2017",house,,2146,,,Santa Clara
756642,"Beautiful Upscale Penthouse-Sweeping Views, Walk to Stores",37.3955675,-121.9443982,"North San Jose, San Jose, CA, USA",0,,174,,,,,,2,3,1,1,apartment,Yes,2014,Within 12 hours,,"June 6, 2017",apartment,,853,3,,Santa Clara
4279043ha,Santana Row Modern and Contemporary Loft in the heart of Silicon Valley,,,"Central San Jose, San Jose, CA, USA",0,,196,,,,120,,4,6,2,1,condo,Yes,2011,Within an hour,100%,"June 3, 2017",condo,3,1099,,building,Santa Clara
4290807ha,Cute House In The Heart Of San Jose Silicon Valley,37.328849,-121.931195,"Central San Jose, San Jose, CA, USA",1,,283,,,,60,,2,5,2,2,house,Yes,2016,Within a few days,70%,"June 5, 2017",house,,1200,5,,Santa Clara
4498637ha,"2BR w. Parking, Washer&Dryer, Walk to Everything, near Apple Spaceship Campus",,,"Santa Clara, CA, USA",2,,,145,,,90,,3,4,2,1,condo,Yes,2016,Within an hour,85%,"June 6, 2017",condo,1,850,,building,Santa Clara
867954,Silicon Valley Chic 2/2 with resort like ammenities,37.4142235,-121.9615252,"North San Jose, San Jose, CA, USA",0,,190,,,,,,2,4,2,2,apartment,Yes,2014,Within 12 hours,,"June 2, 2017",apartment,3,1008,4,,Santa Clara
894674,Spacious & Clean 2BR/2BA - Next To Levi's Stadium,37.40495377,-121.93199225,"North San Jose, San Jose, CA, USA",0,,244,249,269,,,,2,6,2,2,apartment,Yes,2013,Within a few days,30%,"May 25, 2017",apartment,,1100,,building,Santa Clara
946285,"Professionally Managed 2br/2ba with Pool & Gym - Two Bedroom Apartment, Sleeps 6",37.323784,-121.969543,"Santa Clara, CA, USA",0,,400,,,,,,,6,2,2,apartment,Yes,2016,Within an hour,,"June 7, 2017",apartment,,0,,,Santa Clara
1013884,Nice brand new entire house,37.4000521,-121.9675216,"North San Jose, San Jose, CA, USA",1,,120,120,,,50,8.75%,2,4,1,1,house,Yes,2017,Within an hour,100%,"May 6, 2017",house,,680,4,,Santa Clara
4466104ha,Beautiful 3br/2ba Executive Smart Home,37.365597,-121.9904527,"Santa Clara, CA, USA",1,,425,300,,,150,9.5%,2,6,3,2,house,No,2017,Within an hour,100%,"June 6, 2017",house,,1425,6,,Santa Clara
927573,Gorgeous Top Floor Santana Row Loft,37.3219338,-121.9482036,"Central San Jose, San Jose, CA, USA",0,,395,395,,,150,10.0%,2,6,2,1,condo,No,2011,Within 12 hours,100%,"May 27, 2017",condo,,,,,Santa Clara
4536914ha,3BR Peaceful Rose Garden Home in San Jose,37.342895,-121.931379,"Central San Jose, San Jose, CA, USA",0,,185,,,,,,2,5,3,1,house,Yes,2013,Within 2 days,,"June 5, 2017",house,,,,,Santa Clara
894667,Modern + Clean Silicon Valley 1BR Apt @AireSanJose,37.40495,-121.9319956,"North San Jose, San Jose, CA, USA",2,,219,199,199,,49,14.0%,2,4,1,1,apartment,Yes,2013,Within a few days,40%,"January 11, 2017",apartment,,800,,building,Santa Clara
1064498,"3 BDR  Luxury Townhome In Rivermark, Santa Clara",,,"North San Jose, San Jose, CA, USA",0,,221,200,250,,150,8.75%,,8,3,2,townhome,No,2017,Within a day,80%,"June 2, 2017",townhome,,,,,Santa Clara
652431,"Sophisticated Centrally Located Santa Clara–Levi Stadium, Pool",37.395466,-121.944286,"North San Jose, San Jose, CA, USA",0,,159,,,,,,2,3,1,1,apartment,Yes,2014,Within 12 hours,,"June 6, 2017",apartment,,889,3,,Santa Clara
3961898ha,3BR Luxury Home by Tech Cos/Levi's,,,"North San Jose, San Jose, CA, USA",11,4.7,434,,,,,,1,6,3,3,house,Yes,2014,Within an hour,,"June 7, 2017",house,,,6,,Santa Clara
894673,New Business x Leisure 2BR/2BA Urban Flat @SanJose,37.40494925,-121.93199761,"North San Jose, San Jose, CA, USA",1,,242,249,269,,69,14.0%,2,6,2,2,apartment,Yes,2013,Within a few days,71%,"May 22, 2017",apartment,,1100,,building,Santa Clara
1025272,Located Central to Silicon Valley,37.3874329,-121.9949027,"Sunnyvale, CA, USA",0,,165,,,,,,2,4,2,2,apartment,Yes,2014,Within 12 hours,,"June 2, 2017",apartment,,,4,,Santa Clara
894663,Stunning Contemporary 1br/1ba For Business Or Fun!,37.40495075,-121.93199493,"North San Jose, San Jose, CA, USA",0,,222,209,219,,49,14.0%,2,4,1,1,apartment,Yes,2013,Within a few days,44%,"November 14, 2016",apartment,,,,building,Santa Clara
916646,"Exec 2BR/2BA with pool & gym in new building - Two Bedroom Apartment, Sleeps 6",37.3406258,-121.9786999,"Santa Clara, CA, USA",0,,417,,,,,,,6,2,2,apartment,Yes,2016,Within an hour,,"June 7, 2017",apartment,,0,,,Santa Clara
4463724ha,"AL1: Remarkable Remodeled 3/1 Near SCU, downtown San Jose, SAP Center",,,"Central San Jose, San Jose, CA, USA",0,,311,259,,,175,,3,7,3,1,apartment,Yes,2013,Within an hour,100%,"June 6, 2017",apartment,1,1200,7,house,Santa Clara
1000596,Newly updated Santa Clara luxury apartment home!,37.3993974,-121.9458635,"North San Jose, San Jose, CA, USA",0,,187,,,,,,4,6,2,2,apartment,Yes,2014,Within a few hours,,"June 7, 2017",apartment,,961,6,,Santa Clara
4489401ha,Luxury Santa Clara Apartments with Rejuvenating Pool and Spa,37.3931923,-121.9486923,"North San Jose, San Jose, CA, USA",0,,472,,,,,,2,5,2,2,apartment,Yes,2014,Within a day,,"June 7, 2017",apartment,,,5,,Santa Clara
1001055,Oversized Santa Clara Apartment Home!,37.335895,-121.962869,"Santa Clara, CA, USA",0,,,,,,,,4,6,2,2,apartment,Yes,2014,Within a few hours,,"June 7, 2017",apartment,,1050,6,,Santa Clara
1033521,"Executive 2BR/2BA w/ Gym & Pool in New Building - Two Bedroom Apartment, Sleeps 6",37.323784,-121.969543,"Santa Clara, CA, USA",0,,393,,,,,,,6,2,2,apartment,Yes,2017,Within a few hours,,"June 7, 2017",apartment,,0,,,Santa Clara
894664,Stylish 1BR in SV @ Aire - Biz x Leisure Friendly,37.40495075,-121.93199694,"North San Jose, San Jose, CA, USA",0,,219,229,,,49,14.0%,2,4,1,1,apartment,Yes,2013,Within a few days,50%,"May 8, 2017",apartment,,800,,building,Santa Clara
1000615,Newly built modern Santa Clara living in the middle of it all!,37.352836,-121.9856291,"Santa Clara, CA, USA",0,,187,,,,,,4,6,2,2,apartment,Yes,2014,Within a few hours,,"June 7, 2017",apartment,,885,6,,Santa Clara
1000595,2 bed 2 bath At Mansion Grove,37.3973766,-121.9437377,"North San Jose, San Jose, CA, USA",0,,190,,,,,,4,6,2,2,apartment,Yes,2014,Within a few hours,,"June 7, 2017",apartment,,950,6,,Santa Clara
894672,Modern 1BR - Top Silicon Valley Building @SanJose,37.40474546,-121.9319956,"North San Jose, San Jose, CA, USA",0,,219,199,219,,49,14.0%,2,4,1,1,apartment,Yes,2013,Within a few days,55%,"December 9, 2016",apartment,,800,,building,Santa Clara
4458475ha,Heart of Golf Court-Quite and Private,,,"Santa Clara, CA, USA",0,,239,200,,,50,9.5%,12,6,2,2,townhome,No,2017,Within a few days,50%,"June 6, 2017",townhome,,,,,Santa Clara
1000644,Newly updated Santa Clara luxury apartment home!,37.3988044,-121.9424366,"North San Jose, San Jose, CA, USA",0,,171,,,,,,4,6,2,2,apartment,Yes,2014,Within a few hours,,"June 7, 2017",apartment,,950,6,,Santa Clara
4471881ha,Huge Master Suite Close To Apple Campus & Caltrain,,,"Sunnyvale, CA, USA",0,,56,56,,,150,36.0%,3,1,1,1,townhome,Yes,2017,Within 12 hours,90%,"May 15, 2017",townhome,,,,,Santa Clara
1000642,2 bed 2 bath At Mansion Grove,37.398415,-121.942693,"North San Jose, San Jose, CA, USA",0,,,,,,,,4,6,2,2,apartment,Yes,2014,Within a few hours,,"June 7, 2017",apartment,,950,6,,Santa Clara
894662,Contemporary & Tech-friendly 1br In Sv @sanjose,37.40495,-121.93199761,"North San Jose, San Jose, CA, USA",0,,222,199,209,,49,14.0%,2,4,1,,apartment,Yes,2013,Within a day,80%,"July 27, 2016",apartment,,800,,building,Santa Clara
4501352ha,Private residence for 2-4 guests,,,"Newhall, San Jose, CA, USA",0,,155,155,,,50,9.5%,3,4,1,1,house,Yes,2017,,,"June 4, 2017",house,,700,,,Santa Clara
818177,"Bedroom for Share, Walking to Levi's Stadium, Santa Clara near Rivermark Plaza",37.398402,-121.962511,"North San Jose, San Jose, CA, USA",0,,145,95,135,,,8.75%,3,2,1,1,studio,Yes,2016,Within a day,100%,"May 23, 2017",studio,2,165,2,house,Santa Clara
652436,"Near Rivermark Village–Lush Gardens, Pool, Fitness Center",37.3937627,-121.9481453,"North San Jose, San Jose, CA, USA",2,4.5,167,,,,,,30,3,1,1,apartment,Yes,2014,Within 12 hours,,"June 6, 2017",apartment,,804,3,,Santa Clara
946283,"Executive 2 Bedroom / 2 Bathroom Modern Apartment - Two Bedroom Apartment, Sleeps 6",37.323784,-121.969543,"Santa Clara, CA, USA",0,,419,,,,,,,6,2,2,apartment,Yes,2016,Within an hour,,"June 6, 2017",apartment,,0,,,Santa Clara
916650,"Perfectly Located Modern 2BR/2BA w/ Gym & Pool - Two Bedroom Apartment, Sleeps 6",37.3406258,-121.9786999,"Santa Clara, CA, USA",0,,430,,,,,,,6,2,2,apartment,Yes,2016,Within an hour,,"June 6, 2017",apartment,,0,,,Santa Clara
