listing_id,listing_title,latitude,longitude,location_name,number_reviews,average_rating,average_nightly_price,nightly,weekend_night,property_protection_fee,cleaning_fee,tax_rate,min_stay,sleeps,bedrooms,bathrooms,property_type,internet,member_since,response_time,response_rate,calendar_last_updated,type,floor,sq_footage,max_occupancy,building_type,city
850118,Visit Our Family & Pet Friendly Cottage in OBX!,35.999631,-75.6551889,"Kill Devil Hills, NC, USA",24,4.8,143,,,,,12.75%,3,10,3,3,house,Yes,2016,Within 12 hours,100%,"June 7, 2017",house,,1950,10,,Kill Devil Hills
91719,Bungalow-100 Yards to Ocean---Book now for Fall!,36.03921509,-75.67395782,"Kill Devil Hills, NC, USA",62,4.7,121,75,,,,12.5%,4,5,2,1,house,Yes,2006,Within an hour,100%,"June 6, 2017",house,,1200,5,,Kill Devil Hills
785832,Location!  Location!  Location!,36.032299,-75.66703,"Kill Devil Hills, NC, USA",26,4.8,136,95,,,,12.75%,3,6,2,2,condo,Yes,2015,Within a few hours,100%,"June 9, 2017",condo,3,900,6,building,Kill Devil Hills
840861,"A Great Bargin, Pet Friendly. Two blocks from the beach.",36.047462,-75.682813,"Kill Devil Hills, NC, USA",16,4.3,79,,,,,,7,6,3,2,cottage,Yes,2016,Within a few hours,100%,"June 8, 2017",cottage,,1000,6,,Kill Devil Hills
356616,Ready for Summer? Affordable 3 bedroom!,36.04220581,-75.68276978,"Kill Devil Hills, NC, USA",55,4.9,110,100,,,,,3,6,3,2,house,Yes,2011,Within an hour,100%,"June 9, 2017",house,,1550,,,Kill Devil Hills
639730,Cozy Two bedroom cottage in the heart of Kill Devil Hills,35.9969139,-75.652321,"Kill Devil Hills, NC, USA",68,4.9,163,175,,,,12.75%,2,6,2,2,cottage,Yes,2014,Within 12 hours,100%,"June 9, 2017",cottage,,960,6,,Kill Devil Hills
838309,"Ocean Side, Hot Tub, Pet Friendly, Remodeled Beach Home",36.025421,-75.667469,"Kill Devil Hills, NC, USA",18,4.9,286,200,,,,12.75%,3,8,3,2,house,Yes,2016,Within an hour,100%,"June 9, 2017",house,,1020,8,,Kill Devil Hills
605382,Now Booking for Your 2017 OBX Beach Vacation!,35.99968496,-75.65523417,"Kill Devil Hills, NC, USA",32,4.9,129,,,,,12.75%,3,8,3,2,house,Yes,2014,Within a few hours,100%,"June 9, 2017",house,,,8,,Kill Devil Hills
284213,Victoria Place Penthouse  402 - 400 Ft to the Beach! OBX * Friday to Friday,36.007164,-75.65361786,"Kill Devil Hills, NC, USA",28,4.8,329,300,350,,0,12.75%,3,6,3,3,condo,Yes,2010,Within a few hours,100%,"June 9, 2017",condo,4,2600,6,,Kill Devil Hills
436096,"Oceanfront, 3 bed/2 bath, Pet Friendly, Linens Included, WiFi,",36.048625,-75.677638,"Kill Devil Hills, NC, USA",26,4.9,286,,,,,12.75%,7,7,3,2,house,Yes,2012,Within a few days,90%,"June 9, 2017",house,,,,,Kill Devil Hills
783404,Beach Therapy At The Outer Banks!,36.02967959,-75.66542293,"Kill Devil Hills, NC, USA",29,4.6,200,,,,,12.0%,3,6,3,2,condo,Yes,2015,Within 12 hours,100%,"June 9, 2017",condo,1,2000,6,building,Kill Devil Hills
867160,Siren Sound a charming OBX beach cottage in the perfect beach location,36.0370606,-75.6785413,"Kill Devil Hills, NC, USA",15,4.9,105,,,,,12.75%,3,4,2,1,cottage,Yes,2016,Within a day,90%,"June 9, 2017",cottage,,800,4,,Kill Devil Hills
651239,In the heart of the OBX- Pet Friendly-,36.029723,-75.670062,"Kill Devil Hills, NC, USA",39,4.6,150,150,,,125,12.75%,2,11,4,3,house,Yes,2014,Within a day,100%,"June 9, 2017",house,,,11,,Kill Devil Hills
804806,Snorkel A Shipwreck...Two Ships Are On The Bottom Just Off The Beach.  Enjoy!!,36.031536,-75.670048,"Kill Devil Hills, NC, USA",13,4.5,149,100,,,,,3,6,3,2,cottage,Yes,2016,Within a few days,70%,"June 9, 2017",cottage,,1291,6,,Kill Devil Hills
719651,Modernized 1960's Semi-Oceanfront Cottage - Dog Friendly with Large Fenced Yard!,35.994872,-75.646266,"Kill Devil Hills, NC, USA",44,4.6,225,250,,,,,2,6,3,1,cottage,Yes,2015,Within a few hours,100%,"June 9, 2017",cottage,,900,6,,Kill Devil Hills
701793,Warm weather = Beach time!!,36.02523042,-75.68075286,"Kill Devil Hills, NC, USA",29,4.8,139,,,,,12.75%,3,7,2,2,condo,Yes,2015,Within 12 hours,100%,"June 9, 2017",condo,1,1100,7,building,Kill Devil Hills
402151,Easy 5 minute walk to the Beach - Great Beach Access with parking/shower,36.01604843,-75.66172791,"Kill Devil Hills, NC, USA",26,4.9,131,145,,,,12.75%,3,7,3,1,house,Yes,2009,Within 12 hours,100%,"June 4, 2017",house,,1100,7,,Kill Devil Hills
560750,OLD NAGS HEAD COTTAGE CHARM....SHORT WALK TO THE BEACH,36.034153,-75.67204,"Kill Devil Hills, NC, USA",60,4.9,166,125,,,,13.0%,3,6,2,1,house,Yes,2014,Within an hour,100%,"June 9, 2017",house,,,6,,Kill Devil Hills
115331ha,ACQUA - Semi-oceanfront /Beach Road/Elevator,36.04226323,-75.67449331,"Kill Devil Hills, NC, USA",48,,342,,,,,12.75%,3,14,5,5,house,Yes,2004,Within 2 days,90%,"June 5, 2017",house,,3000,14,,Kill Devil Hills
300521,BACON in the SUN (OBX) - 5 Bedroom / 3 Bath -Walk to Beach and Avalon Pier,36.04349136,-75.67728424,"Kill Devil Hills, NC, USA",61,4.8,200,250,,,150,12.75%,2,12,5,3,house,Yes,2010,Within a day,90%,"June 9, 2017",house,,,12,,Kill Devil Hills
4481751ha,"Bright, Airy & Beachy 3 Bedroom Close to Beach & Pet Friendly",36.0094453,-75.6568545,"Kill Devil Hills, NC, USA",6,4.8,185,135,,,50,6.0%,3,7,3,3,house,Yes,2017,Within a few hours,100%,"June 9, 2017",house,,1240,7,,Kill Devil Hills
685432,"Bright And Cozy Two Room Unit,  Close To Beach And Sound -- Perfect  For Two!",36.035744,-75.683931,"Kill Devil Hills, NC, USA",40,4.9,89,89,,,,12.75%,3,2,1,1,studio,Yes,2015,Within a few hours,100%,"June 8, 2017",studio,1,480,2,house,Kill Devil Hills
688837,Great House In the center of all the activity OBX has to offer!,36.0538309,-75.6887356,"Kitty Hawk, NC, USA",25,4.8,150,150,,,,12.75%,2,15,4,3,house,Yes,2015,Within a few days,70%,"June 4, 2017",house,,1700,15,,Kill Devil Hills
720316,STUNNING VIEWS!!!!!!,36.045595,-75.6903899,"Kill Devil Hills, NC, USA",10,4.9,320,250,,,,8.0%,4,8,3,2,house,Yes,2015,Within a few hours,100%,"June 9, 2017",house,,2400,8,,Kill Devil Hills
4295189ha,Newly Renovated Condo with Beautiful Ocean Views and Beach Access,36.026478,-75.6647482,"Kill Devil Hills, NC, USA",11,4.5,185,90,,,,12.75%,3,6,2,2,condo,Yes,2016,Within an hour,100%,"June 3, 2017",condo,2,880,6,building,Kill Devil Hills
7026937ha,* Lively Up Yourself * Great SUMMER Rates!!,36.013502,-75.659061,"Kill Devil Hills, NC, USA",30,4.9,142,140,150,,,,3,6,3,1,cottage,Yes,2008,Within 12 hours,100%,"June 9, 2017",cottage,,,6,,Kill Devil Hills
649975,Bungalow charm at direct beach access. Won't disappoint!  Filling up for 2017 !,36.03446254,-75.67020873,"Kill Devil Hills, NC, USA",41,4.8,175,195,,,,6.0%,2,8,3,2,cottage,Yes,2014,Within an hour,100%,"June 7, 2017",cottage,,1008,8,,Kill Devil Hills
788288,"Barefootin' - steps from the beach, restaurants & shops. Very close to it all!",36.0058324,-75.653368,"Kill Devil Hills, NC, USA",21,4.9,335,291,,,,,3,17,6,4,house,Yes,2015,Within 12 hours,90%,"June 8, 2017",house,,2128,17,,Kill Devil Hills
426605,Pet friendly sound side 3 Bdrm/2Bth Non Smoking Beach Box Private Home,36.04753,-75.688146,"Kill Devil Hills, NC, USA",51,4.9,107,350,,,,,2,8,3,2,house,Yes,2012,Within a few hours,100%,"June 8, 2017",house,,,8,,Kill Devil Hills
230351,"Still Available June 10th - 17th, $1050.00 + cleaning and taxes!",36.00291443,-75.65213013,"Kill Devil Hills, NC, USA",25,4.7,135,135,,,,13.0%,2,9,3,2,house,Yes,2009,Within 2 days,80%,"June 9, 2017",house,,,9,,Kill Devil Hills
682187,CJ's Hideaway! Brand New Home! 500ft to Beach Access. Milepost 7.5,36.02283084,-75.6645929,"Kill Devil Hills, NC, USA",17,,200,200,,,,12.75%,2,9,3,2,house,Yes,2015,Within an hour,100%,"June 9, 2017",house,,1500,9,,Kill Devil Hills
844011,Reduced Sept/Oct Rates!-Updated 3 Bdrm Summer Cottage-500' to Beach-3 Night Min.,36.053461,-75.6833259,"Kill Devil Hills, NC, USA",13,,172,99,,,,12.75%,3,6,3,1,house,Yes,2016,Within an hour,100%,"June 7, 2017",house,,1270,6,,Kill Devil Hills
318387,Stunning views - waterfront cottage - lovely and relaxing - flexible dates,36.03819275,-75.68708038,"Kill Devil Hills, NC, USA",11,4.9,156,,120,,,12.75%,4,4,2,1,cottage,Yes,2010,,,"June 9, 2017",cottage,,1000,4,,Kill Devil Hills
99971,May Weeks Available - Private Pool & Hot Tub.  Outstanding Guest Reviews,36.001231,-75.6514119,"Kill Devil Hills, NC, USA",79,4.8,225,225,,,,12.75%,1,10,4,3,house,Yes,2006,Within a few days,60%,"June 4, 2017",house,,,10,,Kill Devil Hills
876598,Williams Cottage at 9.5 MP   1.5 blocks from the beach,36.000101,-75.651162,"Kill Devil Hills, NC, USA",3,,128,114,150,,,12.75%,3,8,3,2,cottage,Yes,2016,Within a day,90%,"June 9, 2017",cottage,,1080,8,,Kill Devil Hills
62548,"STILL OPEN:  Weeks of July 1st, 8th and 15th.  BOOK NOW!",35.99384784,-75.64680243,"Nags Head, NC, USA",25,4.8,193,,,,85,,3,8,4,2,house,Yes,2005,Within 12 hours,100%,"June 1, 2017",house,,,8,,Kill Devil Hills
982923,Cozy 3 bedroom Cottage in Heart of Kill Devil Hills,35.99451,-75.654541,"Kill Devil Hills, NC, USA",15,4.9,108,200,,,,12.75%,2,6,3,1,cottage,Yes,2014,Within a few hours,100%,"June 9, 2017",cottage,,1150,6,,Kill Devil Hills
993708,"Cancellation:  6/10 Opened Up - Pool, Hot Tub, and a Short Walk to the B",36.03113,-75.669958,"Kill Devil Hills, NC, USA",8,4.8,407,500,,,150,12.75%,2,12,5,5,cottage,Yes,2010,Within a few days,100%,"June 8, 2017",cottage,,,12,,Kill Devil Hills
4160018ha,"Only 2 peak weeks remain! Book now for OBX joy! DogFriendly, Close2Sound&Beach",36.0350821,-75.6831804,"Kill Devil Hills, NC, USA",6,,180,,,,,12.75%,3,8,4,2,house,Yes,2016,Within 12 hours,100%,"June 9, 2017",house,,1200,8,,Kill Devil Hills
438445,Special 6/11-6/17  6 nights only $880!  Walk to ocean & pier.  Dogs free!,36.042253,-75.675137,"Kill Devil Hills, NC, USA",21,4.7,207,,,,,,2,12,4,2,house,Yes,2009,Within a day,90%,"June 1, 2017",house,,2000,12,,Kill Devil Hills
808346,"""Another State of Mind"" - Spacious 4BR Beach House Short Walk to Beach",36.040661,-75.6753311,"Kill Devil Hills, NC, USA",15,4.9,200,200,,,,,2,8,4,3,house,Yes,2016,Within 2 days,100%,"June 8, 2017",house,,2400,8,,Kill Devil Hills
3663998ha,Charming beach house with a pool and a short walk to the beach,36.015419,-75.65926,"Kill Devil Hills, NC, USA",27,4.7,296,235,,,150,12.75%,3,12,4,3,cottage,Yes,2013,Within a day,90%,"June 8, 2017",cottage,,1800,12,,Kill Devil Hills
845086,"Breathtaking Views, Beach Front, Pet Friendly, Linens and Towels, Many Decks,",36.041041,-75.672504,"Kill Devil Hills, NC, USA",7,4.4,416,,,,,6.0%,3,12,4,3,house,Yes,2016,Within 12 hours,100%,"June 9, 2017",house,,1900,12,,Kill Devil Hills
3904285ha,"Soundside Home with 4 Bedrooms, 3 Baths, WIFI in quiet soundside neighborhood",35.996389,-75.652495,"Kill Devil Hills, NC, USA",2,4.5,99,,,,,,7,9,4,3,house,Yes,2012,Within 12 hours,,"June 6, 2017",house,,1440,9,,Kill Devil Hills
711059,Family Friendly Condo Complex,36.0052394,-75.65406934,"Kill Devil Hills, NC, USA",20,4.8,130,130,,,,12.75%,3,6,2,2,condo,Yes,2015,Within an hour,100%,"June 9, 2017",condo,3,1000,6,building,Kill Devil Hills
4270992ha,Brand New!  Ocean Views! Beautifully Decorated Home 150 Yards From Avalon Beach!,36.043398,-75.676897,"Kill Devil Hills, NC, USA",6,,363,360,375,,,12.75%,2,9,4,4,house,Yes,2016,Within 12 hours,100%,"June 9, 2017",house,,2500,,,Kill Devil Hills
3841862ha,"OUTSTANDING INTERIORS! KING MASTER SUITE, SUN ROOM, WIFI and HARDWOOD FLOORS!",36.039378,-75.678998,"Kill Devil Hills, NC, USA",9,,102,,,,,,7,7,3,2,house,Yes,2012,Within 12 hours,,"June 7, 2017",house,,1337,7,,Kill Devil Hills
718337,Honey Bee Hive.  Close to beach and sound. Cottage is family friendly,36.044857,-75.687078,"Kill Devil Hills, NC, USA",7,4.6,171,190,,,,6.0%,4,7,3,2,cottage,Yes,2015,Within a few days,90%,"June 2, 2017",cottage,,1200,7,,Kill Devil Hills
687192,2 Bedroom Beach Apartment - Only 5 minute walk to the Beach,35.99107945,-75.64597217,"Kill Devil Hills, NC, USA",13,4.8,117,,,,75,12.75%,2,4,2,1,apartment,Yes,2015,Within a day,100%,"June 6, 2017",apartment,1,,4,house,Kill Devil Hills
608367,"5 Bedroom (Sleeps 10) 3 Bath Beach House, Nags Head ~NC~ Mile Post 10.5",35.9914385,-75.6464641,"Nags Head, NC, USA",24,4.6,267,,,,,,2,10,5,3,cottage,Yes,2014,Within 12 hours,100%,"June 9, 2017",cottage,,,10,,Kill Devil Hills
337494,One of the Newest Oceanfront Condos on OBX- Corner 2 BR- Breathtaking!,36.00984573,-75.65464783,"Kill Devil Hills, NC, USA",25,4.9,312,,,,,12.75%,3,6,2,2,condo,Yes,2011,Within 12 hours,100%,"June 9, 2017",condo,2,,6,,Kill Devil Hills
981466,Flip-Flop Time - Amazing Oceanfront Views - steps from the beach,,,"Kill Devil Hills, NC, USA",6,4.7,171,125,,,85,12.75%,3,6,2,2,condo,Yes,2016,Within 12 hours,100%,"June 8, 2017",condo,2,,6,building,Kill Devil Hills
516093,"Beachfront condo, centrally located, direct beach acc",36.032299,-75.66703,"Kill Devil Hills, NC, USA",16,4.9,142,,,,,12.75%,7,6,2,2,condo,Yes,2014,Within an hour,100%,"May 29, 2017",condo,3,910,6,building,Kill Devil Hills
23686,GREAT LOW RATES!!üåûBOOK YOUR WEEK NOW FOR JUNE!!! ‚õ±WHILE THEY LAST!!!‚õµÔ∏è,,,"Kill Devil Hills, NC, USA",24,4.5,104,100,,,0,,4,9,3,2,house,Yes,2003,Within a few hours,100%,"June 5, 2017",house,,1200,9,,Kill Devil Hills
403776,"$100 off June 24 wk,Chillin-3  BR, Ez Beach Access,Bright&Cheerful,Lots of Deck",36.05431366,-75.68370819,"Kill Devil Hills, NC, USA",53,4.9,121,125,,,,12.75%,4,6,3,1,house,Yes,2012,Within 12 hours,90%,"June 8, 2017",house,,,6,,Kill Devil Hills
431723,"Escape from Reality - 3rd floor condo w/ elevator, pool and Wifi",35.9960965,-75.6466371,"Kill Devil Hills, NC, USA",26,4.9,183,179,,,,12.25%,3,9,3,2,condo,Yes,2012,Within an hour,100%,"June 9, 2017",condo,3,,9,building,Kill Devil Hills
708689,"Newly Renovated Cottage,200 ft from the Atlantic! Summer dates available!",36.03607059,-75.67063509,"Kill Devil Hills, NC, USA",13,4.8,196,,,,,12.0%,3,10,4,2,cottage,Yes,2015,Within a few hours,100%,"June 9, 2017",cottage,,1550,10,,Kill Devil Hills
4222701ha,Remodeled DESIGNER Beach Cottage - Only 1 1/2 Blocks to the BEACH!!,36.026969,-75.667046,"Kill Devil Hills, NC, USA",20,,225,,,,75,12.75%,3,9,3,2,house,Yes,2016,Within 12 hours,90%,"June 8, 2017",house,,1000,9,,Kill Devil Hills
338246,"Aloha! Centrally Located,4 Bedroom, 2 Bath-House-Ocean Views- 
GREAT LOCATION!",36.00540543,-75.65293884,"Kill Devil Hills, NC, USA",12,4.5,250,250,300,,,6.75%,2,10,4,2,cottage,Yes,2011,Within a few hours,100%,"June 9, 2017",cottage,,1700,10,,Kill Devil Hills
663650,Fun family vacation!,36.000629,-75.651006,"Kill Devil Hills, NC, USA",16,4.8,266,260,,,200,12.75%,2,18,5,3,house,Yes,2015,Within 2 days,80%,"June 7, 2017",house,,2500,18,,Kill Devil Hills
578246,Great View!  Centrally Located.  Less than 1 block to the best beach on the OBX.,36.005656,-75.654241,"Kill Devil Hills, NC, USA",18,4.8,150,150,,,,12.75%,3,5,2,2,condo,Yes,2014,Within 12 hours,100%,"June 8, 2017",condo,3,1100,5,,Kill Devil Hills
684045,Contemporary Beach Cottage- Oceanside & Pet Friendly,36.0413726,-75.6754065,"Kill Devil Hills, NC, USA",9,4.9,101,,,,,12.75%,7,6,3,2,house,Yes,2015,Within a few days,100%,"June 8, 2017",house,,1350,6,,Kill Devil Hills
363729,Welcome to Cabana Blue - my guests tell it all!,36.017214,-75.662029,"Kill Devil Hills, NC, USA",27,4.8,182,,,,,13.0%,1,10,4,2,house,Yes,2011,Within a day,90%,"June 7, 2017",house,,,10,,Kill Devil Hills
468938,MAJOR  May and June Discount! Email now 12 Bedroom Direct Oceanfront Estate,36.010371,-75.653946,"Kill Devil Hills, NC, USA",15,4.7,,,,,,12.75%,3,32,12,12,house,Yes,2005,Within 12 hours,90%,"June 9, 2017",house,,8200,32,,Kill Devil Hills
922950,Quaint little cottage,36.039723,-75.6827409,"Kill Devil Hills, NC, USA",4,4.5,127,150,,,,6.0%,2,12,4,2,house,Yes,2016,Within a few hours,100%,"June 6, 2017",house,,1200,12,,Kill Devil Hills
557645,Brittsand By The Sea   3 Blocks From The Beach,36.014404,-75.661786,"Kill Devil Hills, NC, USA",16,4.4,116,,,,,10.0%,2,8,3,2,cottage,Yes,2014,Within a few hours,100%,"June 8, 2017",cottage,,1000,8,,Kill Devil Hills
3756326ha,"NEAR THE BEACH! 4 BRs, Private Pool, Hot Tub, Pool Table and Dog Friendly",36.027008,-75.665912,"Kill Devil Hills, NC, USA",12,4.5,264,,,,,,7,10,4,4,house,Yes,2012,Within 12 hours,,"June 6, 2017",house,,2492,10,,Kill Devil Hills
798388,Water views and wild life abound only steps from the beach,36.033568,-75.671958,"Kill Devil Hills, NC, USA",15,4.9,142,175,,,,,3,6,3,2,house,No,2016,Within an hour,100%,"June 9, 2017",house,,,6,,Kill Devil Hills
901649,OBX Beachhouse Studio,36.052115,-75.688512,"Kill Devil Hills, NC, USA",4,,124,135,,,,,3,2,1,1,studio,Yes,2016,Within a few hours,100%,"June 9, 2017",studio,1,750,2,cottage,Kill Devil Hills
3756278ha,"1 BLOCK TO BEACH- 5 BRs, Private Pool, Hot Tub, Jacuzzi Tub and Dog Friendly",36.022474,-75.66333,"Kill Devil Hills, NC, USA",16,4.4,179,,,,,,7,10,5,3,house,Yes,2012,Within 12 hours,,"June 6, 2017",house,,1742,10,,Kill Devil Hills
1030769,Adorable and Affordable - Just what your family is looking for- Soundside!,36.035464,-75.6841492,"Kill Devil Hills, NC, USA",5,,130,130,,,100,12.75%,3,9,3,2,house,Yes,2017,Within an hour,100%,"May 27, 2017",house,,,,,Kill Devil Hills
3756275ha,"NEAR THE BEACH- 4 Bedrooms, Just a Short Stroll to the Beach, Dog Friendly!",36.0425619,-75.677127,"Kill Devil Hills, NC, USA",17,4.5,142,,,,,,7,8,4,2,house,Yes,2012,Within 12 hours,,"June 5, 2017",house,,1800,8,,Kill Devil Hills
458236,Poppy's Cottage - Home-away-from-home - Awesome Location!,36.046829,-75.686205,"Kill Devil Hills, NC, USA",20,4.9,134,150,150,,,11.75%,3,9,3,2,cottage,Yes,2013,Within 12 hours,100%,"June 2, 2017",cottage,,1300,9,,Kill Devil Hills
584747,Booking now! 1 block to beach. Close to all. Great reviews! Great rates.,36.009716,-75.655417,"Kill Devil Hills, NC, USA",38,4.7,141,,,,,12.75%,2,6,2,2,condo,Yes,2014,Within a few hours,100%,"June 8, 2017",condo,1,800,6,building,Kill Devil Hills
289754,OBX Fun House - The Name Says It All,35.99782562,-75.65029144,"Kill Devil Hills, NC, USA",21,4.6,207,125,,,,7.0%,2,10,4,2,house,Yes,2010,Within a few hours,100%,"June 6, 2017",house,,1000,10,,Kill Devil Hills
795764,Family Friendly Cottage w/Ocean Views. LifeGuarded Beach at access.,35.99107992,-75.64569599,"Kill Devil Hills, NC, USA",14,4.9,158,266,,,140,12.75%,2,11,4,3,cottage,Yes,2016,Within an hour,100%,"June 9, 2017",cottage,,2000,11,,Kill Devil Hills
288881,Relax in Privacy - Centrally Located Home,35.99953292,-75.65588002,"Kill Devil Hills, NC, USA",14,4.8,134,140,,,,12.75%,2,6,3,2,house,Yes,2010,Within a day,90%,"June 8, 2017",house,,,6,,Kill Devil Hills
300188,"Walking Distance to Beach, Sound & Shop, Affordable Large Home",36.03816223,-75.67689514,"Kill Devil Hills, NC, USA",16,4.8,200,,215,,,,7,14,5,3,house,Yes,2010,Within a day,100%,"June 1, 2017",house,,,14,,Kill Devil Hills
393748,Family friendly vacation home,35.98850632,-75.64427185,"Nags Head, NC, USA",24,,174,175,,,,12.75%,2,6,2,1,apartment,Yes,2012,Within 12 hours,100%,"June 4, 2017",apartment,1,,6,house,Kill Devil Hills
3600585ha,Family friendly short walk to the beach,36.039612,-75.675237,"Kill Devil Hills, NC, USA",13,4.8,152,185,,,,,3,10,4,2,house,Yes,2013,Within 12 hours,100%,"June 9, 2017",house,,,10,,Kill Devil Hills
3756210ha,"OCEANSIDE! - 4 Bedrooms, Hot Tub, WIFI, Crow's Nest, Pool Table, YMCA Access!",35.996587,-75.648223,"Kill Devil Hills, NC, USA",20,4.4,114,,,,,,7,11,4,3,house,Yes,2012,Within 12 hours,,"June 6, 2017",house,,1900,11,,Kill Devil Hills
674842,"In the Heart of KDH: 5 BR, Private Pool, Hot Tub, Close to Beach & Restaurants",36.03326545,-75.67016838,"Kill Devil Hills, NC, USA",4,,171,,,,,,7,12,5,4,house,Yes,2007,Within a few hours,,"June 8, 2017",house,,,12,,Kill Devil Hills
853973,Bright & Beachy cottage - walk to the beach!,36.036575,-75.676045,"Kill Devil Hills, NC, USA",22,4.9,129,,,,85,12.75%,2,6,3,1,house,Yes,2016,Within an hour,100%,"June 7, 2017",house,,,6,,Kill Devil Hills
1078320,Moondoggies Beach Club,36.042253,-75.679618,"Kill Devil Hills, NC, USA",0,,200,250,,,150,6.0%,4,8,4,2,house,No,2014,Within a few days,70%,"June 8, 2017",house,,,,,Kill Devil Hills
805626,"Victoria Place 304 Semi-Ocean Front, 400 Ft to the Beach! OBX Friday to Friday",36.00713875,-75.65355306,"Kill Devil Hills, NC, USA",2,,225,225,250,,0,12.75%,3,5,2,2,condo,Yes,2010,Within an hour,100%,"June 4, 2017",condo,3,1350,5,,Kill Devil Hills
595591,BEAUTIFUL 5 BEDROOM FAMILY FRIENDLY HOUSE USUALLY $2200 BOOK BY JULY 1ST-$1995,36.010481,-75.660617,"Kill Devil Hills, NC, USA",3,,285,,,,,,7,10,5,3,house,Yes,2014,Within 12 hours,100%,"June 5, 2017",house,,,10,,Kill Devil Hills
666506,OBX Beach Cottage (Fri-Fri) 1 Block off Beach - 3 Bedroom/2.1 Bath  WiFi 8MP,36.01696,-75.660848,"Kill Devil Hills, NC, USA",9,4.8,175,,,,,,3,8,3,2,cottage,Yes,2015,Within a day,100%,"June 8, 2017",cottage,,1000,8,,Kill Devil Hills
3756306ha,"POPULAR OCEANFRONT W/GREAT VIEWS, 4 BEDROOMS, HOT TUB, WIFI AND DUNE-TOP DECK",36.041765,-75.672988,"Kill Devil Hills, NC, USA",22,,279,,,,,,7,9,4,2,house,Yes,2012,Within 12 hours,,"June 6, 2017",house,,1152,9,,Kill Devil Hills
609719,Peaceful Sound Front Home,36.050398,-75.691075,"Kill Devil Hills, NC, USA",8,4.9,167,175,,,,12.75%,3,10,3,3,house,Yes,2014,Within a day,100%,"June 8, 2017",house,,,10,,Kill Devil Hills
279789,"Great Beach House - Kill Devil Hills, One Row from Oceanfront",35.99893951,-75.65084839,"Kill Devil Hills, NC, USA",42,4.9,163,175,,,95,13.0%,2,9,3,2,house,Yes,2010,Within a few hours,90%,"June 9, 2017",house,,1500,9,,Kill Devil Hills
84055,"A Quiet area off the beaten path, Check our 2017 Rates",36.0273608,-75.6819997,"Kill Devil Hills, NC, USA",17,4.6,192,150,,,75,12.75%,1,8,4,2,house,Yes,2006,Within 12 hours,80%,"June 8, 2017",house,,,8,,Kill Devil Hills
459181,"3 Minute walk to the Beach, 3 lots up from the Beach Rd.",35.997701,-75.648756,"Kill Devil Hills, NC, USA",23,,151,,,,,12.75%,7,6,2,1,house,Yes,2013,Within a few hours,100%,"June 6, 2017",house,,960,6,,Kill Devil Hills
3756214ha,"EXCELLENT! 4 BRs, Private Pool, Hot Tub, Direct Beach Access, Pool Table",36.055095,-75.682946,"Kill Devil Hills, NC, USA",23,4.7,179,,,,,,7,10,4,3,house,Yes,2012,Within 12 hours,,"June 6, 2017",house,,,10,,Kill Devil Hills
3970413ha,"The Blue Marlin - 12 Bedrooms (10 Masters) Oceanfront in Kill Devil Hills, NC",36.010496,-75.654032,"Kill Devil Hills, NC, USA",0,,641,,,,,,7,24,12,12,house,Yes,2015,,,"June 9, 2017",house,,,24,,Kill Devil Hills
3970447ha,The Gardenia House - 12 Bedrooms (10 Masters) Oceanfront in Kill Devil Hills,36.010621,-75.654119,"Kill Devil Hills, NC, USA",0,,841,,,,,,7,24,12,12,house,Yes,2015,,,"June 9, 2017",house,,,24,,Kill Devil Hills
733410,Oceanfront Condo~Outer Banks North Carolina~LOWERED SUMMER RATES~Pool,36.03289423,-75.66742783,"Kill Devil Hills, NC, USA",34,4.5,170,125,,,,12.75%,2,4,2,2,condo,Yes,2015,Within 12 hours,100%,"June 9, 2017",condo,3,,4,building,Kill Devil Hills
784562,"Sunnydaze-close to the beach, yet in the heart of Kill Devil Hills!",35.997804,-75.648597,"Kill Devil Hills, NC, USA",1,,156,,,,,,7,8,3,,house,Yes,2004,Within a day,,"June 6, 2017",house,,,8,,Kill Devil Hills
4462306ha,Mile 7: Walk to the Beach and Puttx2 while staying at this Charming reTREAT,36.028924,-75.669064,"Kill Devil Hills, NC, USA",4,,163,170,,,150,12.75%,4,10,3,2,house,Yes,2017,Within an hour,100%,"June 9, 2017",house,,1600,,,Kill Devil Hills
464058,Come enjoy or newly renovated four bedroom beach house,36.030265,-75.681395,"Kill Devil Hills, NC, USA",29,4.9,127,120,,,75,12.75%,2,8,4,2,cottage,Yes,2013,Within 12 hours,90%,"June 9, 2017",cottage,,1064,8,,Kill Devil Hills
366393,Cozy Studio near beach and bay. Perfect romantic getaway!,36.02905273,-75.68099213,"Kill Devil Hills, NC, USA",44,4.8,87,100,100,,,12.75%,3,2,1,1,studio,Yes,2011,Within an hour,100%,"June 2, 2017",studio,1,400,2,house,Kill Devil Hills
3683869ha,Location! Location! Location!,35.9921651,-75.64535,"Nags Head, NC, USA",11,4.9,171,,,,100,,4,6,3,2,house,Yes,2014,Within 12 hours,90%,"June 8, 2017",house,,1262,6,,Kill Devil Hills
4511548ha,"Welcoming Beach Cottage With Hot Tub, Just 1 ¬Ω Blocks To The Beach!",36.02714623,-75.66693542,"Kill Devil Hills, NC, USA",1,,225,225,,,100,12.75%,2,8,3,3,house,Yes,2017,Within an hour,100%,"June 6, 2017",house,,1200,,,Kill Devil Hills
7054830ha,Oyster Pointe Condo on the Sound. Close to Wright Brothers Museum,36.0250845,-75.6822824,"Kill Devil Hills, NC, USA",8,4.4,75,,,,75,,7,4,2,2,condo,No,2009,Within an hour,80%,"June 9, 2017",condo,1,1000,4,building,Kill Devil Hills
3756290ha,"NEAR THE BEACH- 4 BRs, Hot Tub, Basketball, Screened-in Porch, Dog Friendly",36.023819,-75.6661869,"Kill Devil Hills, NC, USA",21,4.2,128,,,,,,7,9,4,2,house,Yes,2012,Within 12 hours,,"June 5, 2017",house,,,9,,Kill Devil Hills
3756204ha,"NEAR THE BEACH! 1 BEDROOM CONDO WITH LOFT, 2 COMMUNITY POOLS AND KIDDIE POOL!",35.995465,-75.647398,"Kill Devil Hills, NC, USA",15,4.5,123,,,,,,7,6,1,1,condo,No,2012,Within 12 hours,,"June 6, 2017",condo,,,6,,Kill Devil Hills
773346,Friday-Fri. Rental OPEN DATES 6/9-16 7/21-7/28 8/4-11 8/18-25 8/25-9/1,36.0386529,-75.684552,"Kill Devil Hills, NC, USA",21,4.8,156,150,,,,,3,10,3,2,cottage,Yes,2015,Within an hour,100%,"June 8, 2017",cottage,,1254,10,,Kill Devil Hills
571887,KDH vacation rental 500 yards from the beach and sound!  Sleeps 8,36.051881,-75.6863,"Kill Devil Hills, NC, USA",15,4.2,160,150,,,,13.0%,3,8,4,2,cottage,Yes,2014,Within a day,90%,"May 30, 2017",cottage,,,8,,Kill Devil Hills
889319,"Close to Beach, easy access, walking distance to restaurants and shopping.",36.004863,-75.653542,"Kill Devil Hills, NC, USA",4,,158,180,,,,,4,8,3,2,house,Yes,2016,Within a day,100%,"May 19, 2017",house,,1600,8,,Kill Devil Hills
425144,"Centrally located Cottage, WiFi, Btw the Hwys (MP8), 1 Blk from Beach!",36.015282,-75.659031,"Kill Devil Hills, NC, USA",28,,209,,,,,12.75%,4,8,3,2,cottage,Yes,2012,Within a few days,70%,"June 8, 2017",cottage,,,8,,Kill Devil Hills
130383,Front Porch Suite - Atlantic Street Inn,36.00198746,-75.65252686,"Kill Devil Hills, NC, USA",5,4.6,122,99,,,29,12.75%,2,3,1,1,hotel,Yes,2007,Within 12 hours,100%,"June 7, 2017",hotel,1,450,3,cottage,Kill Devil Hills
4447373ha,Beautiful beach cottage between the highways,36.010272,-75.657251,"Kill Devil Hills, NC, USA",1,,183,145,,,100,12.75%,3,8,3,2,house,No,2011,Within a day,100%,"June 9, 2017",house,,,,,Kill Devil Hills
503579,Beautiful House Close To Ocean/Sound/Fishing Pier/Boat Ramp.,36.038352,-75.68216,"Kill Devil Hills, NC, USA",5,,250,250,,,100,,4,8,3,2,house,Yes,2013,Within a few days,90%,"June 9, 2017",house,,1600,8,,Kill Devil Hills
3756307ha,"SWEET OCEANFRONT!! WITH 4 BEDROOMS, HOT TUB, DUNE-TOP DECK  AND DOG FRIENDLY!",36.037654,-75.6704139,"Kill Devil Hills, NC, USA",18,4.6,156,,,,,,7,10,4,3,house,Yes,2012,Within 12 hours,,"June 6, 2017",house,,1584,10,,Kill Devil Hills
3756260ha,"JUST 1 BLOCK TO BEACH!  1 BEDROOM CONDO, COMMUNITY POOL, WIFI & DOG FRIENDLY!",36.005656,-75.654241,"Kill Devil Hills, NC, USA",19,3.9,121,,,,,,7,4,1,1,condo,Yes,2012,Within 12 hours,,"June 6, 2017",condo,,,4,,Kill Devil Hills
3846242ha,"#1305 Seaside. Just 1 Block to Beach, WiFi, Oceanside, Large Sun Deck!",35.999102,-75.650101,"Kill Devil Hills, NC, USA",9,4.9,143,,,,,,7,6,3,2,house,Yes,2008,Within an hour,,"June 5, 2017",house,,,6,,Kill Devil Hills
955354,Oceanfront  - Modern & Comfortable - AV2-3E,36.032299,-75.66703,"Kill Devil Hills, NC, USA",0,,93,,,,,,7,6,2,2,house,Yes,2005,Within a day,,"June 9, 2017",house,3,,6,,Kill Devil Hills
3756305ha,"OCEANFRONT CHARMER- 4 BRs, Hot Tub, Oceanfront Deck, Dog Friendly and Views!",36.024545,-75.661669,"Kill Devil Hills, NC, USA",17,4.2,399,,,,,,7,10,4,3,house,Yes,2012,Within 12 hours,,"June 7, 2017",house,,1647,10,,Kill Devil Hills
596739,Cozy Escape Outer Banks Nc. Between The Highways Mp 6. Kill Devil Hills.,36.040312,-75.676062,"Kill Devil Hills, NC, USA",8,4.6,193,,,,,,7,6,3,2,cottage,Yes,2014,Within a few hours,100%,"June 3, 2017",cottage,,,6,,Kill Devil Hills
60944,Caribbean Dream Vacation Home in Beautiful Outer Banks,36.00561523,-75.65391541,"Kill Devil Hills, NC, USA",44,,203,,,,120,,3,10,4,4,house,Yes,2005,Within an hour,90%,"May 26, 2017",house,,,10,,Kill Devil Hills
3756264ha,"OCEANFRONT! GREAT OCEAN VIEWS, 4 BEDROOMS, WIFI, DUNE TOP DECK & DOG FRIENDLY",36.0363206,-75.6707727,"Kill Devil Hills, NC, USA",17,3.9,199,,,,,,7,8,4,2,house,Yes,2012,Within 12 hours,,"June 8, 2017",house,,1530,8,,Kill Devil Hills
757266,Water Front - Beautiful Sunsets,36.030429,-75.684738,"Kill Devil Hills, NC, USA",2,4.5,264,,,,,,3,8,3,2,house,Yes,2015,Within a day,100%,"June 8, 2017",house,,1000,8,,Kill Devil Hills
774118,"Private Pool, Swing Set, B-ball Hoop & Grill! Perfect For Large Families -137",36.0181169,-75.662525,"Kill Devil Hills, NC, USA",0,,471,,,,,,7,10,5,4,house,Yes,2005,Within a day,,"June 9, 2017",house,,,10,,Kill Devil Hills
4272366ha,"#1379 Ocean Villa. Kill Devil Hills, Private Pool and Hot Tub!",36.031269,-75.670723,"Kill Devil Hills, NC, USA",0,,203,,,,,,7,11,5,3,house,Yes,2008,Within an hour,,"June 6, 2017",house,,,11,,Kill Devil Hills
915079,"Centrally Located in KDH: 4 Bedrooms, Private Pool and Hot Tub, Walk to the Beach Restaurants and Shops!",36.028645,-75.6677629,"Kill Devil Hills, NC, USA",2,,171,,,,,,7,8,4,3,house,Yes,2007,Within a few hours,,"June 9, 2017",house,,,,,Kill Devil Hills
906987,FAMILY-FRIENDLY HOUSE - EASY 5 MINUTE WALK TO BEACH,36.01464,-75.660478,"Kill Devil Hills, NC, USA",1,,199,199,,,99,,2,12,4,2,house,Yes,2016,Within a few hours,100%,"June 8, 2017",house,,,12,,Kill Devil Hills
4479432ha,"10 reasons why - Best condo in OBX - new construction, pool, oceanfront ...",36.028326,-75.664543,"Kill Devil Hills, NC, USA",1,,450,350,400,,,12.75%,3,6,2,,condo,Yes,2013,Within an hour,100%,"June 9, 2017",condo,2,1200,,building,Kill Devil Hills
993370,All Decked Out -OBX  MP6,,,"Kill Devil Hills, NC, USA",1,,99,75,,,65,,2,6,3,2,house,No,2017,Within an hour,100%,"June 9, 2017",house,,,,,Kill Devil Hills
768915,Soundside Home in Quiet Neighborhood Near Shopping and Dining,36.0393163,-75.68084808,"Kill Devil Hills, NC, USA",2,,101,,,,50,,3,4,2,1,house,Yes,2015,Within a day,100%,"June 9, 2017",house,,,4,,Kill Devil Hills
1074398,"JUST LISTED: OCEANFRONT PERFECTION! 2 BR, 2 BA with POOL! High end everything!",36.0179871,-75.65816616,"Kill Devil Hills, NC, USA",0,,271,,,,,12.75%,7,4,2,2,house,Yes,2015,Within an hour,100%,"June 9, 2017",house,,,,,Kill Devil Hills
907490,Southern Comfort Cottage for All Seasons! Perfect Fisherman's Escape!!,36.0384085,-75.6719075,"Kill Devil Hills, NC, USA",2,4.5,216,275,295,,,12.75%,3,6,3,1,house,Yes,2016,Within 12 hours,100%,"June 9, 2017",house,,,6,,Kill Devil Hills
4462108ha,"Spacious (multi) Family Home - Close to Beach and Restaurants - ""Cerulean C""",36.003848,-75.653412,"Kill Devil Hills, NC, USA",1,,269,195,,,150,12.75%,2,14,5,4,house,Yes,2017,Within an hour,100%,"June 9, 2017",house,,2376,14,,Kill Devil Hills
1032262,The Wolcottage - a historic flat top cottage built in 1932,36.053261,-75.681701,"Kill Devil Hills, NC, USA",0,,261,235,,,100,6.0%,3,6,3,1,house,Yes,2017,Within an hour,100%,"June 4, 2017",house,,980,6,,Kill Devil Hills
155049ha,Picasso Moon - The Beach House Experience - 3 Minute Walk to Beach Access,35.99608268,-75.64814704,"Kill Devil Hills, NC, USA",3,,164,,,,,12.75%,7,9,3,2,house,Yes,2005,Within a few hours,100%,"June 8, 2017",house,,1000,,,Kill Devil Hills
300574,4 Bedroom Ocean View,,,"Kill Devil Hills, NC, USA",9,4.6,143,,,,,12.75%,1,13,4,2,house,Yes,2010,Within 12 hours,100%,"June 7, 2017",house,,,,,Kill Devil Hills
3756285ha,"SEMI-OCEANFRONT, 4 BRs, 2 Living Areas, Crow's Nest and Beautiful Views!",36.020217,-75.661417,"Kill Devil Hills, NC, USA",17,4.6,185,,,,,,7,12,4,3,house,Yes,2012,Within 12 hours,,"June 7, 2017",house,,,12,,Kill Devil Hills
3756226ha,"OCEANSIDE- 4 BRs, Great Ocean Views, Wrap-Around Decks with New Interiors!",36.024245,-75.662593,"Kill Devil Hills, NC, USA",19,4.8,128,,,,,,7,8,4,2,house,Yes,2012,Within 12 hours,,"June 6, 2017",house,,1196,8,,Kill Devil Hills
3756314ha,"OCEANFRONT WITH HOT TUB, OUTSTANDING OCEAN VIEWS, DEN AND DIRECT BEACH ACCESS",36.041644,-75.672904,"Kill Devil Hills, NC, USA",21,4.2,314,,,,,,7,10,4,3,house,Yes,2012,Within 12 hours,,"June 9, 2017",house,,1904,10,,Kill Devil Hills
3892749ha,"OLD STYLE OCEANFRONT CHARM -GREAT OCEAN VIEWS 3 BEDROOMS, LOFT & DOG FRIENDLY",36.04237,-75.673384,"Kill Devil Hills, NC, USA",8,4.5,185,,,,,,7,8,3,1,house,Yes,2012,Within 12 hours,,"June 9, 2017",house,,1452,8,,Kill Devil Hills
4272364ha,"#1378 Everybody Loves, Kill Devil Hills, Fenced Yard with a Private Pool",36.054984,-75.683465,"Kill Devil Hills, NC, USA",0,,242,,,,,,7,9,4,4,house,Yes,2008,Within an hour,,"June 6, 2017",house,,,9,,Kill Devil Hills
955353,2nd Floor End Unit - Great Ocean Views - AV2-2D,36.032299,-75.66703,"Kill Devil Hills, NC, USA",0,,114,,,,,,7,6,2,2,house,Yes,2005,Within a day,,"June 9, 2017",house,2,,6,,Kill Devil Hills
424382,Perfect Location & Newly Renovated - only 1.5 blocks from beach!,35.990827,-75.644999,"Kill Devil Hills, NC, USA",16,4.8,238,,,,,,7,7,3,2,cottage,Yes,2012,Within a few days,90%,"May 25, 2017",cottage,,,7,,Kill Devil Hills
800376,"Outer Banks, family-friendly beach home. 1/2 mile to ocean front.",36.040376,-75.675916,"Kill Devil Hills, NC, USA",3,,283,175,,,,,2,10,4,2,house,Yes,2016,Within an hour,100%,"June 5, 2017",house,,,10,,Kill Devil Hills
246309,"Dragonfly Dunes, Much-Loved Cottage 1 Block from Ocean! Wi-Fi!",36.0269165,-75.66645813,"Kill Devil Hills, NC, USA",10,,148,,,,,,2,6,3,2,house,Yes,2009,Within a day,100%,"June 6, 2017",house,,,6,,Kill Devil Hills
238496,SUMMER IS ALMOST HERE.... ONE WEEK IN JULY STILL AVAILABLE  DON'T WAIT,36.03983307,-75.67318726,"Kill Devil Hills, NC, USA",14,4.9,163,,,,,,4,8,4,2,house,Yes,2004,,0%,"May 5, 2017",house,,,8,,Kill Devil Hills
363555,4 bd/2ba w/pool - May/Sep weekend getaway special starting at $675,36.03212738,-75.68367767,"Kill Devil Hills, NC, USA",19,4.7,261,225,225,,,,3,10,4,2,house,Yes,2011,Within 12 hours,100%,"May 9, 2017",house,,2148,10,,Kill Devil Hills
116139ha,"Affordable, Comfortable OBX Beachfront Condo - Atlantic Ocean views!",36.0316266,-75.6679492,"Kill Devil Hills, NC, USA",42,4.5,150,95,100,,,12.75%,2,9,2,2,condo,Yes,2004,Within 12 hours,100%,"June 9, 2017",condo,2,,9,building,Kill Devil Hills
425460,"3 bedroom, 2 bath Pet Friendly Home.",35.998142,-75.661895,"Kill Devil Hills, NC, USA",8,,183,275,,,,12.75%,3,9,3,2,house,Yes,2012,Within a few days,60%,"June 3, 2017",house,,,9,,Kill Devil Hills
347012,Obx Retreat Close to Sound and Beach,36.0435791,-75.68791962,"Kill Devil Hills, NC, USA",21,,143,,,,,,2,5,2,1,house,Yes,2011,Within a day,80%,"June 9, 2017",house,,,5,,Kill Devil Hills
955725,The Happy Shack. Enjoy the Outer Banks simply Happy! .,36.038741,-75.680502,"Kill Devil Hills, NC, USA",0,,135,135,,,125,6.0%,2,6,2,1,cottage,Yes,2016,Within 12 hours,100%,"June 1, 2017",cottage,,670,6,,Kill Devil Hills
1039593,Master Suite - Atlantic Street Inn,36.0021569,-75.652148,"Kill Devil Hills, NC, USA",0,,141,99,,,29,12.75%,1,2,1,1,hotel,Yes,2007,Within a few hours,100%,"June 5, 2017",hotel,2,400,2,house,Kill Devil Hills
4091199ha,Family Friendly Retreat,35.992111,-75.646525,"Nags Head, NC, USA",7,4.7,225,200,,,,,3,6,3,2,house,Yes,2015,Within a day,90%,"June 1, 2017",house,,1100,6,,Kill Devil Hills
828008,"The tans will fade, but the memories will last forever.",36.00481972,-75.65088629,"Kill Devil Hills, NC, USA",12,4.8,171,,,,,12.75%,2,4,2,2,condo,Yes,2016,Within an hour,100%,"May 3, 2017",condo,2,1000,4,building,Kill Devil Hills
818243,Beautifully Decorated Beach House With All Amenities You Need Steps From Ocean,36.046999,-75.679079,"Kill Devil Hills, NC, USA",4,,200,169,,,,,3,10,3,2,cottage,No,2016,Within 12 hours,100%,"June 1, 2017",cottage,,1300,10,,Kill Devil Hills
4255493ha,Magical Bungalow OBX (Walk To Beach),36.047437,-75.678787,"Kill Devil Hills, NC, USA",3,4.3,247,177,197,,150,12.75%,2,9,4,3,bungalow,Yes,2015,Within an hour,100%,"June 8, 2017",bungalow,,1200,9,,Kill Devil Hills
231390ha,"Between the highways, Family oriented, Easy Beach Access",35.99988237,-75.65039635,"Kill Devil Hills, NC, USA",5,,150,,,,,12.75%,7,7,3,2,house,Yes,2009,Within 12 hours,100%,"May 15, 2017",house,,,,,Kill Devil Hills
264974ha,Sunday to Sunday Semi-Oceanfront 4BR on direct beach access with lifeguard.,36.0179262,-75.6600216,"Kill Devil Hills, NC, USA",15,,289,110,,,,14.0%,3,10,4,2,house,Yes,2009,Within 12 hours,100%,"June 9, 2017",house,,1400,10,,Kill Devil Hills
392720,Beautiful two or three Bedroom Beach Front Outer Banks Beach Club Resorts,36.00540543,-75.65216827,"Kill Devil Hills, NC, USA",44,4.7,324,,,,,12.75%,7,6,2,2,condo,Yes,2011,Within a few hours,100%,"June 9, 2017",condo,,,6,building,Kill Devil Hills
3474806ha,"#1530 Best Kept Secret. KDH, Game Room, PETS OK, Sheets Provided, Free WiFi!!",36.025567,-75.672179,"Kill Devil Hills, NC, USA",8,4.9,214,,,,,,7,10,4,3,house,Yes,2008,Within an hour,,"June 6, 2017",house,,,10,,Kill Devil Hills
473794,500 feet to the beach access!  OBX Original beach reTreat,36.0218909,-75.664996,"Kill Devil Hills, NC, USA",2,4.5,143,,,,,12.75%,6,3,2,1,cottage,Yes,2013,Within a day,90%,"May 26, 2017",cottage,,500,,,Kill Devil Hills
3684963ha,"#1302 Endless Summer. Indoor Pool, Open Year-Round, Hot Tub, Rec Room, WiFi!!",36.014084,-75.660711,"Kill Devil Hills, NC, USA",11,4.5,185,,,,,,7,10,4,4,house,Yes,2008,Within an hour,,"June 6, 2017",house,,,10,,Kill Devil Hills
3756215ha,A Charming 2 bedroom oceanfront condo that has breathtaking ocean views.,36.0264796,-75.6647495,"Kill Devil Hills, NC, USA",17,4.4,,,,,,,7,6,2,2,condo,Yes,2012,Within 12 hours,,"June 7, 2017",condo,,,6,,Kill Devil Hills
3756218ha,"OCEANFRONT- 3 Bedrooms (One Master), Dog Friendly, Outstanding Ocean Views.",36.048133,-75.677325,"Kill Devil Hills, NC, USA",31,4.6,342,,,,,,7,6,3,2,house,Yes,2012,Within 12 hours,,"June 5, 2017",house,,,6,,Kill Devil Hills
3756266ha,"Two Master Suites, WIFI, Great Community Pool and Clubhouse with Pool Table",36.0081099,-75.6728783,"Bermuda Bay, Kill Devil Hills, NC, USA",24,4.1,135,,,,,,7,8,2,2,townhome,Yes,2012,Within 12 hours,,"June 6, 2017",townhome,,1715,8,building,Kill Devil Hills
3756225ha,"FRONTS BEACH ROAD- 3 BRs (1 Master), Pool Table, Dog Friendly, 90 Ft to Beach",36.04639,-75.677272,"Kill Devil Hills, NC, USA",23,4.4,199,,,,,,7,6,3,2,house,Yes,2012,Within 12 hours,,"June 9, 2017",house,,,6,,Kill Devil Hills
4054517ha,#175 Coleman's Beach Front Inn. Ocean front in the heart of Kill Devil Hills,36.036063,-75.66954,"Kill Devil Hills, NC, USA",16,4.1,209,,,,,,3,12,4,2,house,Yes,2008,Within an hour,,"June 8, 2017",house,,,12,,Kill Devil Hills
774071,Just a Glimpse of Perfection at this Accommodating OBX Home! - 045,36.001289,-75.650668,"Kill Devil Hills, NC, USA",1,,214,,,,,,7,10,5,4,house,Yes,2005,Within a day,,"June 9, 2017",house,,,10,,Kill Devil Hills
864117,Awesome Beach Cottage! 5 Minute Walk To The Beach. Close To Wright Bros Memorial,36.026376,-75.667526,"Kill Devil Hills, NC, USA",6,,214,250,,,,,3,8,4,2,cottage,Yes,2016,Within 12 hours,100%,"May 25, 2017",cottage,,1200,8,,Kill Devil Hills
4263055ha,OCEANSIDE STUDIO DUPLEX CLOSE TO BEACH and ACROSS FROM WRIGHT BROS. MEMORIAL!,36.017034,-75.662487,"Kill Devil Hills, NC, USA",0,,101,,,,,,7,3,Studio,1,house,Yes,2012,Within 12 hours,,"June 6, 2017",house,,,3,,Kill Devil Hills
4322320ha,3 Bedroom Oceanside home in Kill Devil Hills with short walk to the beach.,36.003455,-75.65318,"Kill Devil Hills, NC, USA",0,,166,,,,,,7,8,3,2,house,No,2012,Within 12 hours,,"June 5, 2017",house,,,,,Kill Devil Hills
955276,Good Location w/Easy walk to the Beach - Private Pool - 076,36.030771,-75.670755,"Kill Devil Hills, NC, USA",0,,140,,,,,,7,10,5,3,house,Yes,2005,Within a day,,"June 9, 2017",house,,,10,,Kill Devil Hills
955298,Early Check in a 2pm & Outstanding views! - 193,36.033017,-75.669876,"Kill Devil Hills, NC, USA",0,,142,,,,,,7,10,5,3,house,Yes,2005,Within a day,,"June 9, 2017",house,,,10,,Kill Devil Hills
955321,Stylish and thoughtfully designed with direct beach access! - 363,36.0344985,-75.6700405,"Kill Devil Hills, NC, USA",0,,171,,,,,,7,12,6,6,house,Yes,2005,Within a day,,"June 9, 2017",house,,,12,,Kill Devil Hills
4359000ha,330 Tunifish - Saturday - 3 Bedroom Cottage Right Beside the Movie Theater,35.9976638,-75.6475242,"Kill Devil Hills, NC, USA",0,,194,,,,,,3,6,3,2,house,Yes,2003,Within an hour,,"June 9, 2017",house,,,6,,Kill Devil Hills
957623,"Classic OBX home with Epic Crows Nest views, short walk to the beach.",,,"Kill Devil Hills, NC, USA",0,,161,165,,,100,12.75%,2,8,3,2,house,No,2016,Within a day,100%,"June 3, 2017",house,,,,,Kill Devil Hills
4449484ha,Roomy Rental Home within Minutes to the Ocean!,35.991074,-75.643981,"Nags Head, NC, USA",0,,150,,,,,,7,10,4,2,house,Yes,2003,Within an hour,,"June 9, 2017",house,,,10,,Kill Devil Hills
1050332,"Happy Place: 1 BR / 1 BA condo in Kill Devil Hills, Sleeps 4",35.995069,-75.648144,"Kill Devil Hills, NC, USA",0,,118,,,,,,7,4,1,1,condo,Yes,2009,Within a few hours,,"June 9, 2017",condo,,,4,,Kill Devil Hills
1091468,Available NOW! 10-17 Jun Partial wk OK just opened up. Fabulous rates & location,36.02975717,-75.665375,"Kill Devil Hills, NC, USA",0,,136,125,,,,12.75%,2,6,2,2,condo,Yes,2013,Within an hour,100%,"June 9, 2017",condo,1,1000,,building,Kill Devil Hills
783864,"Short Walk To Beach!  Btw Hwys, WiFi, Outlet Shopping, Great Restaurants, & More",35.993892,-75.648383,"Kill Devil Hills, NC, USA",32,4.9,142,125,150,,,,2,6,3,2,cottage,Yes,2015,Within an hour,100%,"June 9, 2017",cottage,,1100,6,,Kill Devil Hills
4442200ha,Newly Updated Beachfront Condo with Direct Beach Access,,,"Kill Devil Hills, NC, USA",4,,190,93,,,,12.75%,3,6,2,2,condo,Yes,2017,Within an hour,100%,"June 6, 2017",condo,3,866,6,,Kill Devil Hills
1042448,Sowester Suite - Atlantic Street Inn,36.0021569,-75.652148,"Kill Devil Hills, NC, USA",0,,127,89,,,29,12.75%,1,2,1,1,hotel,Yes,2007,Within 12 hours,90%,"May 31, 2017",hotel,2,300,2,cottage,Kill Devil Hills
3474008ha,"#33 Ocean View's. Rec Room, Pool Table,Direct Beach Access, PETS OK",36.018898,-75.661983,"Kill Devil Hills, NC, USA",7,4.1,275,,,,,,3,8,4,3,house,Yes,2008,Within an hour,,"June 9, 2017",house,,,8,,Kill Devil Hills
4251787ha,"Compass Rose, 3 Bedroom w/ Hot Tub, Pet Friendly, Flexible Stays",36.03014265,-75.66953534,"Kill Devil Hills, NC, USA",4,4.3,212,,,,,,3,6,3,2,house,Yes,2013,Within an hour,,"June 9, 2017",house,,1514,6,,Kill Devil Hills
959521,Sea Pointe Condo With Ocean Views,35.99897272,-75.64863853,"Kill Devil Hills, NC, USA",0,,275,275,325,,,12.75%,3,8,3,3,condo,Yes,2017,Within an hour,90%,"June 6, 2017",condo,2,,8,building,Kill Devil Hills
3970707ha,Pet Friendly - Chill Beach and Surf Bungalow OBX,36.025728,-75.672568,"Kill Devil Hills, NC, USA",9,4.9,234,147,,,145,12.75%,1,6,3,1,bungalow,Yes,2015,Within 12 hours,100%,"June 5, 2017",bungalow,,950,,,Kill Devil Hills
7038249ha,Dave & Ruthies at the Outer Banks of N.C.,35.99562125,-75.64759112,"Kill Devil Hills, NC, USA",4,4.8,86,,,,,,7,4,2,1,condo,Yes,2008,Within a few days,50%,"June 1, 2017",condo,1,,4,building,Kill Devil Hills
3474087ha,#300 My Three Gulls. Oceanside home with Hot Tub located in Kill Devil Hills!,36.049554,-75.679831,"Kill Devil Hills, NC, USA",8,,286,,,,,,3,8,4,2,house,Yes,2008,Within an hour,,"June 6, 2017",house,,,8,,Kill Devil Hills
3474795ha,"#1504 Red Shark Shack. Cozy & Comfy Cottage, Deeded Beach Parking, WiFi",36.041345,-75.680748,"Kill Devil Hills, NC, USA",10,4.6,104,,,,,,7,7,2,1,house,Yes,2008,Within an hour,,"June 9, 2017",house,,,7,,Kill Devil Hills
3528526ha,"Oceanfront Condo, FlexStay & No Check In Day Restrictions, Renovated '14",36.002168,-75.649227,"Kill Devil Hills, NC, USA",3,3.3,225,,,,,,3,4,2,2,condo,Yes,2013,Within an hour,,"June 9, 2017",condo,2,900,4,,Kill Devil Hills
3756286ha,"Semi-oceanfront favorite with elevator, 4 master suites and gourmet kitchen!!",36.020091,-75.661343,"Kill Devil Hills, NC, USA",26,4.8,178,,,,,,7,12,4,5,house,Yes,2012,Within 12 hours,,"June 6, 2017",house,,,12,,Kill Devil Hills
3756301ha,"3 Bedrooms, Screened-in Porch, Close to local Attractions and the beach.",36.042401,-75.682316,"Kill Devil Hills, NC, USA",3,,132,,,,,,7,8,3,1,house,Yes,2012,Within 12 hours,,"June 6, 2017",house,,,8,,Kill Devil Hills
3756203ha,"NEAR THE BEACH- 1 BEDROOM CONDO WITH WIFI,  2 COMMUNITY POOLS AND KIDDIE POOL",35.995465,-75.647398,"Kill Devil Hills, NC, USA",19,4.6,118,,,,,,7,4,1,1,condo,Yes,2012,Within 12 hours,,"June 9, 2017",condo,,,4,,Kill Devil Hills
628414,"Skipper's Jewel-OCEANFRONT, HEATED PRIVATE POOL & HOT TUB",36.031685,-75.6670369,"Kill Devil Hills, NC, USA",2,,,,,,,,7,17,7,5,house,Yes,2004,Within a day,,"June 2, 2017",house,,,17,,Kill Devil Hills
630921,"Skipper's Sunrise-OCEANFRONT, PRIVATE HEATED POOL & HOT TUB",36.021961,-75.66101,"Kill Devil Hills, NC, USA",1,,,,,,,,7,20,8,5,house,Yes,2004,Within a day,,"March 2, 2017",house,,,20,,Kill Devil Hills
3995852ha,"Fancy That: 11 BR / 10 BA ten bedroom house in Kill Devil Hills, Sleeps 32",36.009167,-75.653482,"Kill Devil Hills, NC, USA",0,,328,,,,,,1,32,11,10,house,Yes,2005,Within an hour,,"June 9, 2017",house,,,,,Kill Devil Hills
3970434ha,Cloud Nine- 8 Bedrooms (7 Masters) *Semi-Oceanfront* in Kill Devil Hills,36.02428055,-75.66365097,"Kill Devil Hills, NC, USA",1,,256,,,,,,7,16,8,8,house,Yes,2015,,,"June 9, 2017",house,,,16,,Kill Devil Hills
742996,"Fowl Play - NEW THIS YEAR! Updated cottage in KDH- 9 mp, Between the Highways",36.004098,-75.653561,"Kill Devil Hills, NC, USA",2,,,265,,,,12.75%,4,11,4,2,cottage,Yes,2015,Within an hour,100%,"November 7, 2016",cottage,,1500,11,,Kill Devil Hills
4088284ha,"OCEANFRONT- 4 BRs, Direct Beach Access, Screen-In Porch, Classic Beach House",36.02808,-75.66439,"Kill Devil Hills, NC, USA",1,,285,,,,,,7,9,4,2,house,Yes,2012,Within 12 hours,,"June 5, 2017",house,,,9,,Kill Devil Hills
917021,"SPECIALS:  6/10 is $1195, 6/17 is $1395, 6/24 is $1795 TOTAL including taxes!",35.9966967,-75.6507574,"Kill Devil Hills, NC, USA",0,,194,,,,,,7,7,3,3,house,Yes,2010,Within a day,,"June 5, 2017",house,,,7,,Kill Devil Hills
932904,Beautifully decorated and modern condo offering a Pool and WATER PARK!,36.0081097,-75.6728785,"Bermuda Bay, Kill Devil Hills, NC, USA",0,,151,,,,,,7,8,2,2,condo,Yes,2010,Within a day,,"June 5, 2017",condo,,,8,,Kill Devil Hills
4314784ha,well maintained  4BR Oceanfront beach cottage on the in Kill Devil Hills.,36.051864,-75.679832,"Kill Devil Hills, NC, USA",2,,329,,,,,,7,8,4,2,house,Yes,2012,Within 12 hours,,"June 9, 2017",house,,1104,8,,Kill Devil Hills
955346,"Comfortable and close to the beach, perfect for families - 741",36.039094,-75.674711,"Kill Devil Hills, NC, USA",0,,156,,,,,,7,8,4,3,house,Yes,2005,Within a day,,"June 9, 2017",house,,,8,,Kill Devil Hills
955320,Splendid home with amenities for the entire family ! - 359,36.034592,-75.670126,"Kill Devil Hills, NC, USA",0,,166,,,,,,7,12,6,6,house,Yes,2005,Within a day,,"June 9, 2017",house,,,12,,Kill Devil Hills
955361,The perfect OCEANFRONT Bungalow - H5,36.0251132,-75.6639342,"Kill Devil Hills, NC, USA",0,,285,,,,,,7,6,3,2,house,Yes,2005,Within a day,,"June 9, 2017",house,,,6,,Kill Devil Hills
4358993ha,307 Miller - Saturday - Affordable 3 Bedroom Between the Highways,36.003042,-75.652932,"Kill Devil Hills, NC, USA",0,,154,,,,,,7,6,3,2,house,No,2003,Within an hour,,"June 9, 2017",house,,,6,,Kill Devil Hills
4358994ha,309 Howell Sweet It Is - Saturday - 3 Bedroom in the Heart of Kill Devil Hills,36.004742,-75.65347,"Kill Devil Hills, NC, USA",0,,185,,,,,,3,9,3,2,house,Yes,2003,Within an hour,,"June 9, 2017",house,,,9,,Kill Devil Hills
4359007ha,364 Weaver - Saturday - Affordable 3 Bedroom Between the Highways,36.02628326,-75.66776276,"Kill Devil Hills, NC, USA",0,,143,,,,,,3,6,3,2,house,Yes,2003,Within an hour,,"June 9, 2017",house,,,6,,Kill Devil Hills
4359043ha,601 Caravanseria - Saturday - Charming old style home with modern updates!,36.053891,-75.6817193,"Kill Devil Hills, NC, USA",0,,314,,,,,,7,14,6,3,house,Yes,2003,Within an hour,,"June 9, 2017",house,,,14,,Kill Devil Hills
920011,The WHITEHOUSE. Located at Kill Devil Hills on the Outer Banks of North Carolina,,,"Kill Devil Hills, NC, USA",0,,131,125,,,,,7,7,3,1,cottage,Yes,2017,Within an hour,90%,"June 9, 2017",cottage,,1000,7,,Kill Devil Hills
3528578ha,"Hamilton Cay at Bermuda Bay, Water Park Access, No Check In Day Restrictions",36.004598,-75.67770966,"Bermuda Bay, Kill Devil Hills, NC, USA",2,4.5,179,,,,,,3,4,2,2,condo,Yes,2013,Within an hour,,"June 9, 2017",condo,2,1450,4,,Kill Devil Hills
4272598ha,Exta-Sea is a new 2017 Luxury Oceanfront Home Perfect for an Event or Vacation with Family and Friends,35.98843,-75.64417,"Nags Head, NC, USA",0,,,,,,,,3,18,9,9,house,Yes,2013,Within an hour,,"June 9, 2017",house,,5000,18,,Kill Devil Hills
3726251ha,"Semi-oceanfront, Spectacular Views, Private Pool and Hot Tub!",36.044447,-75.676124,"Kill Devil Hills, NC, USA",1,,972,,,,,,3,12,6,6,house,Yes,2013,Within an hour,,"June 9, 2017",house,,3500,12,,Kill Devil Hills
4114600ha,"Walk to the beach, Outdoor Shower, KDH Home, Charcoal Grill, Cabana Service!",36.00855,-75.6557,"Kill Devil Hills, NC, USA",1,,224,,,,,,3,8,4,3,house,Yes,2013,Within an hour,,"June 9, 2017",house,,1550,8,,Kill Devil Hills
455366,"The Lark: cozy condo on the sound-pool, WiFi, dog- and kid-friendly",36.02484484,-75.68248215,"Kill Devil Hills, NC, USA",40,4.8,142,99,119,,,12.75%,2,5,2,2,condo,Yes,2013,Within 12 hours,80%,"June 3, 2017",condo,2,1100,5,building,Kill Devil Hills
4257490ha,New 2017 Oceanfront 18 Bedroom Luxury Pet Friendly Home!,36.023738,-75.662073,"Kill Devil Hills, NC, USA",0,,,,,,,,3,48,18,16,house,Yes,2013,Within an hour,,"June 9, 2017",house,,8519,48,,Kill Devil Hills
384904,IN PROCESS OF SELLING UNIT!,36.0264796,-75.6647495,"Kill Devil Hills, NC, USA",32,4.9,130,130,,,,,3,6,2,2,condo,Yes,2011,Within a few days,40%,"December 20, 2016",condo,3,850,6,,Kill Devil Hills
3726248ha,"Oceanfront Condo In Admirals View III, Close to Kill Devil Hills Attractions",36.004785,-75.650779,"Kill Devil Hills, NC, USA",3,3.7,260,,,,,,3,4,2,2,condo,Yes,2013,Within an hour,,"June 9, 2017",condo,2,900,4,,Kill Devil Hills
379224,"Jay's Nestegg -OBX Condo - Pool, Elevator, Wifi & Pet Friendly",35.99581528,-75.64855957,"Kill Devil Hills, NC, USA",16,4.8,216,,,,,12.75%,2,10,3,2,condo,Yes,2011,Within an hour,100%,"May 3, 2017",condo,2,,10,,Kill Devil Hills
438079,WOW House - Ocean Views with Pool in KDH,36.026173,-75.664992,"Kill Devil Hills, NC, USA",2,,510,,,,,,7,14,5,4,house,Yes,2004,Within a day,,"June 3, 2017",house,,,14,,Kill Devil Hills
3474475ha,"#1303 Flocc O'Gulls. Ocean View, 1 Block to Beach, WiFi, Great Location!",36.003193,-75.652551,"Kill Devil Hills, NC, USA",4,,279,,,,,,7,9,4,3,house,Yes,2008,Within an hour,,"June 8, 2017",house,,,9,,Kill Devil Hills
3474011ha,"#57 Beach Retreat. Charming Semi-Oceanfront Home, Private Pool, Hot Tub, WiFi",36.027242,-75.665636,"Kill Devil Hills, NC, USA",8,3.6,285,,,,,,7,9,4,2,house,Yes,2008,Within an hour,,"June 6, 2017",house,,,9,,Kill Devil Hills
3474110ha,"#377 Sun Dancer. Immaculate, Hot Tub w/Ocean View, Direct Beach Access!",36.052706,-75.681907,"Kill Devil Hills, NC, USA",10,4.3,141,,,,,,7,9,4,2,house,Yes,2008,Within an hour,,"June 6, 2017",house,,,9,,Kill Devil Hills
3474794ha,"#1475 Byrd's Nest. Only 1 Block to Beach/Avalon Pier/Awful Aurthurs, Views!",36.044708,-75.677628,"Kill Devil Hills, NC, USA",7,3.9,109,,,,,,7,8,3,2,house,Yes,2008,Within an hour,,"June 6, 2017",house,,,8,,Kill Devil Hills
3474016ha,"#74 Sundance. Semi-Oceanfront, Hot Tub, Spacious Floorplan, Ocean Views!",36.053466,-75.681757,"Kill Devil Hills, NC, USA",17,4.8,273,,,,,,3,10,5,3,house,Yes,2008,Within an hour,,"June 9, 2017",house,,,10,,Kill Devil Hills
3528723ha,"Cambridge Cove Town home, Water park, Flex-Stay Patterns",36.006594,-75.672494,"Bermuda Bay, Kill Devil Hills, NC, USA",1,,212,,,,,,3,6,3,3,townhome,Yes,2013,Within an hour,,"June 9, 2017",townhome,,1529,6,,Kill Devil Hills
3617786ha,"By The Sea: 10 BR / 10 BA ten bedroom house in Kill Devil Hills, Sleeps 24",36.023849,-75.664342,"Kill Devil Hills, NC, USA",0,,328,,,,,,1,24,10,10,house,Yes,2005,Within an hour,,"June 9, 2017",house,,,,,Kill Devil Hills
3637149ha,Affordable Beach House in Great Location! Pets Welcome Short Walk to the Beach,36.010397,-75.657325,"Kill Devil Hills, NC, USA",22,4.7,150,155,,,65,,1,8,3,2,cottage,Yes,2013,Within 12 hours,100%,"June 9, 2017",cottage,,1120,8,,Kill Devil Hills
3675809ha,SUMMER SONG: 6 BR / 4.5 BA six bedroom house in Kill Devil Hills,35.998495,-75.649006,"Kill Devil Hills, NC, USA",0,,257,,,,,,7,12,6,4,house,Yes,2008,Within a day,,"June 9, 2017",house,,,,,Kill Devil Hills
3756263ha,"SEMI-OCEANFRONT- 5 BRs, Two Kitchens, Dog Friendly, Ping Pong, Crows Nest",36.0513425,-75.6803197,"Kill Devil Hills, NC, USA",18,4.9,414,,,,,,7,10,5,4,house,Yes,2012,Within 12 hours,,"June 4, 2017",house,,,10,,Kill Devil Hills
605379,"Golden Strand Resort Complex, MP 7.5 Beach Rd. Kill Devil Hills, NC",36.0287442,-75.6661067,"Kill Devil Hills, NC, USA",3,,186,,,,,,7,6,2,2,condo,No,2014,Within 2 days,80%,"May 3, 2017",condo,,,6,,Kill Devil Hills
3832957ha,"#1469 Day Late. Private Pool, Hot Tub, Rec Room, Short Walk to Beach, WiFi!!!",36.0538839,-75.6817355,"Kill Devil Hills, NC, USA",7,4.1,259,,,,,,3,11,4,4,house,Yes,2008,Within an hour,,"June 8, 2017",house,,,11,,Kill Devil Hills
3849844ha,"#1556 Bay Treasure. Soundfront, Private Dock, WiFi, Close to Boat Ramp!",36.037609,-75.687191,"Kill Devil Hills, NC, USA",11,3.6,,,,,,,7,8,3,2,house,Yes,2008,Within an hour,,"June 5, 2017",house,,,8,,Kill Devil Hills
633242,"Skipper's Fantasy-25 YARDS TO BEACH, PRIVATE POOL & HOT TUB",36.00347915,-75.65032615,"Kill Devil Hills, NC, USA",1,,142,,,,,,7,10,5,5,house,Yes,2004,Within a day,,"June 5, 2017",house,,,10,,Kill Devil Hills
3970433ha,The Sea Spirit - 10 Bedrooms (10 Masters) in Kill Devil Hills,36.02430218,-75.6636698,"Kill Devil Hills, NC, USA",2,,328,,,,,,7,20,10,11,house,Yes,2015,,,"June 9, 2017",house,,,20,,Kill Devil Hills
771145,"Spouter Inn - Oceanfront 5BR/3BA, 2 separate houses",36.0278319,-75.664247,"Kill Devil Hills, NC, USA",0,,329,,,,,,7,10,5,3,house,Yes,2007,Within a day,,"June 9, 2017",house,,,10,,Kill Devil Hills
4251861ha,Brand New 2016 Home with Ocean Views and Pool!,36.0165525,-75.6599169,"Kill Devil Hills, NC, USA",3,,267,,,,,,3,8,4,3,house,Yes,2013,Within an hour,,"June 9, 2017",house,,,8,,Kill Devil Hills
900208,Five Minute Walk to the Beach-Close to Resturants-Entertainment-MP9,36.004221,-75.653633,"Kill Devil Hills, NC, USA",1,,253,175,,,,12.75%,7,8,4,2,house,Yes,2016,Within 12 hours,100%,"May 30, 2017",house,,1500,8,,Kill Devil Hills
4267094ha,"#1330 Boss's Playhouse, Pool, Hot Tub, Pet-Friendly, Linens",36.02579,-75.6649769,"Kill Devil Hills, NC, USA",0,,286,,,,,,3,14,5,5,house,Yes,2008,Within an hour,,"June 9, 2017",house,,,14,,Kill Devil Hills
4272367ha,"#1487 TaraLynn. Kill Devil Hills, Beautiful 5 Bedroom Semi-Oceanfront home",36.002154,-75.650615,"Kill Devil Hills, NC, USA",0,,285,,,,,,7,12,5,4,house,Yes,2008,Within an hour,,"June 5, 2017",house,,,12,,Kill Devil Hills
4297847ha,"#1414 The Get Away. Elevator, Pool, Hot Tub, Free Pool Heat, Tiki Bar, PETS!",35.999169,-75.64884,"Kill Devil Hills, NC, USA",1,,495,,,,,,7,13,6,5,house,Yes,2008,Within an hour,,"June 5, 2017",house,,,13,,Kill Devil Hills
933127,Oceanfront! Lovely 3 bedroom Condo with community pool!,36.022297,-75.661209,"Kill Devil Hills, NC, USA",0,,270,,,,,,7,8,3,2,condo,Yes,2010,Within a day,,"June 5, 2017",condo,,,8,,Kill Devil Hills
4302348ha,Best In Show: Top Floor Oceanfront Condo w/Private Terrace,36.0257625,-75.6643234,"Kill Devil Hills, NC, USA",6,4.8,379,,,,,,3,9,3,3,condo,Yes,2016,Within a few hours,,"June 9, 2017",condo,,,9,,Kill Devil Hills
955271,"Soundside, Nicely Decorated Three Level Home W/ a Pool",36.0559,-75.691788,"Kitty Hawk, NC, USA",0,,199,,,,,,7,12,6,5,house,Yes,2005,Within a day,,"June 9, 2017",house,,,12,,Kill Devil Hills
955306,Private Pool and walking distance to the beach - 276,36.028632,-75.667035,"Kill Devil Hills, NC, USA",0,,,,,,,,7,8,4,4,house,Yes,2005,Within a day,,"June 9, 2017",house,,,8,,Kill Devil Hills
955310,Walking distance to the beach and convieniently located near great dining - 304,35.9912009,-75.644059,"Nags Head, NC, USA",0,,157,,,,,,7,6,3,2,house,Yes,2005,Within a day,,"June 9, 2017",house,,,6,,Kill Devil Hills
955314,Well Equipped and thoughtfully decorated - 329,36.009198,-75.654954,"Kill Devil Hills, NC, USA",0,,136,,,,,,7,10,5,4,house,Yes,2005,Within a day,,"June 9, 2017",house,,,10,,Kill Devil Hills
955316,Outstanding Ocean views and Private Pool - 341,36.045722,-75.676938,"Kill Devil Hills, NC, USA",1,,171,,,,,,7,10,4,3,house,Yes,2005,Within a day,,"June 9, 2017",house,,,10,,Kill Devil Hills
4358992ha,306 Rest & Relax - Saturday - Cute 3 Bedroom Between the Highways,35.999977,-75.651088,"Kill Devil Hills, NC, USA",0,,150,,,,,,3,8,3,2,house,Yes,2003,Within an hour,,"June 9, 2017",house,,,8,,Kill Devil Hills
4358998ha,320-Flip Flop - Saturday - 3 Bedroom Dog Friendly Home,35.992328,-75.64464,"Nags Head, NC, USA",0,,178,,,,,,3,6,3,1,house,Yes,2003,Within an hour,,"June 9, 2017",house,,,6,,Kill Devil Hills
4360615ha,Grand Luxxe ~ RA127626,36.030997,-75.666364,"Kill Devil Hills, NC, USA",0,,,,,,,,7,27,10,10,house,Yes,2012,Within an hour,,"June 9, 2017",house,,,27,,Kill Devil Hills
991952,"STEPS FROM BEACH, AFFORDABLE 2BD/2BATH SLEEPS 6 W/ AMMENATIES",,,"Kill Devil Hills, NC, USA",0,,125,125,,,20,,5,6,2,2,condo,No,2015,,,"January 10, 2017",condo,,,,,Kill Devil Hills
1005786,Breakfast at the Beach,,,"Kill Devil Hills, NC, USA",0,,162,100,,,100,,7,6,2,2,condo,No,2017,Within a day,100%,"June 9, 2017",condo,,,,,Kill Devil Hills
1026060,"Outer Banks, NC~1bdrm condo at Outer Banks Beach Club",36.0066853,-75.6533048,"Kill Devil Hills, NC, USA",0,,183,250,,,,12.75%,7,4,1,1,condo,Yes,2016,,,"June 5, 2017",condo,,,4,building,Kill Devil Hills
1053656,"Updated Condo, Beach, Pools, Tennis, Centrally Located, Activities & SuperClean!",,,"Kill Devil Hills, NC, USA",0,,200,,,,,,7,6,2,2,condo,Yes,2017,Within a few hours,100%,"June 8, 2017",condo,,,,building,Kill Devil Hills
1006726,"Comfortable cottage between the beach road & bypass in Kill Devil Hills, NC",36.0398701,-75.6753745,"Kill Devil Hills, NC, USA",0,,175,140,,,,,3,6,3,2,cottage,Yes,2017,,,"June 4, 2017",cottage,,1200,,,Kill Devil Hills
1082661,Couples Retreat With Jacuzzi Bathtub And Game Room. In The Heart Of Kill Devil,36.0257462,-75.67545,"Kill Devil Hills, NC, USA",0,,157,150,175,,,7.75%,2,4,1,1,apartment,Yes,2017,Within a few hours,100%,"June 9, 2017",apartment,1,800,,house,Kill Devil Hills
3617104ha,Affordable Family Get Away !!  Crows Nest 380 steps to the Beach,36.0107855,-75.6570277,"Kill Devil Hills, NC, USA",21,4.8,159,155,,,115,,3,10,4,2,house,Yes,2013,Within 12 hours,100%,"June 9, 2017",house,,1872,10,,Kill Devil Hills
743682,"Great Beach Property,  - 1bd/1bath, Sleeps 4",36.0060834,-75.6525716,"Kill Devil Hills, NC, USA",1,,93,130,,,,,4,4,2,2,apartment,No,2015,Within a few days,40%,"June 8, 2017",apartment,,,4,,Kill Devil Hills
4228575ha,Oceanfront 2 Bedroom With Flexible Check In / Out,36.004785,-75.650779,"Kill Devil Hills, NC, USA",0,,249,,,,,,3,4,2,2,condo,Yes,2013,Within an hour,,"June 9, 2017",condo,1,900,4,,Kill Devil Hills
4272368ha,1335 Gingerbread House. Semi Oceanfront with ocean views! Free Pool Heat,36.02832,-75.666282,"Kill Devil Hills, NC, USA",0,,358,,,,,,3,10,5,3,house,No,2008,Within an hour,,"June 9, 2017",house,,,10,,Kill Devil Hills
955374,Ocean views with a private swimming pool at this classic OBX beach cottage - 312,36.02894,-75.666653,"Kill Devil Hills, NC, USA",0,,142,,,,,,7,8,4,2,house,Yes,2005,Within a day,,"June 9, 2017",house,,,8,,Kill Devil Hills
1012594,"Going to carolina , oceanfront house in Kill Devil Hills NC 27948",36.02425,-75.662009,"Kill Devil Hills, NC, USA",0,,,450,,,410,6.88%,1,18,10,10,house,No,2017,Within an hour,100%,"June 9, 2017",house,,,,,Kill Devil Hills
4590196ha,"Bermuda Bay 3 Story Townhome, Waterpark, Walking Distance to Wright Memorial",,,"Bermuda Bay, Kill Devil Hills, NC, USA",0,,199,225,,,50,,3,6,2,2,house,Yes,2017,Within 2 days,90%,"June 9, 2017",house,,1300,,,Kill Devil Hills
3528454ha,"Bermuda Bay, Flex Stay Patterns, Resort Community in Kill Devil Hills",36.00672933,-75.67364448,"Bermuda Bay, Kill Devil Hills, NC, USA",2,,215,,,,,,3,6,3,2,house,Yes,2013,Within an hour,,"June 9, 2017",house,,2000,6,,Kill Devil Hills
4132654ha,Kees Flexstay - No Mandatory Check In Or Out Days Or 7 Night Minimums!,36.004857,-75.652794,"Kill Devil Hills, NC, USA",0,,193,,,,,,3,6,3,2,house,Yes,2013,Within an hour,,"June 9, 2017",house,,1164,6,,Kill Devil Hills
4149092ha,"Flip Flop 5 Bedroom Semi-Oceanfront, Full Renovation 2016, Available W/ Flexstay",36.042165,-75.674609,"Kill Devil Hills, NC, USA",1,,376,,,,,,3,10,5,5,house,Yes,2013,Within an hour,,"June 9, 2017",house,,2894,10,,Kill Devil Hills
4362507ha,301 Gammon Smith - Sunday - Rustic Sound Front Home with Gorgeous Views,36.030839,-75.6848009,"Kill Devil Hills, NC, USA",0,,193,,,,,,3,6,3,3,house,No,2003,Within an hour,,"June 9, 2017",house,,,6,,Kill Devil Hills
4331412ha,Beach Cottage with Great Outdoor Living Area,36.0548523,-75.68339046,"Kill Devil Hills, NC, USA",4,4.8,175,,,,,,3,6,3,2,house,Yes,2013,Within an hour,,"June 9, 2017",house,,1032,6,,Kill Devil Hills
1007389,"Inviting & Spacious 2nd Floor, 3 Bdr/2 Bth, Sound Front, Beach Condo",,,"Kill Devil Hills, NC, USA",0,,284,300,,,100,,3,6,3,2,condo,No,2017,Within 12 hours,100%,"June 3, 2017",condo,,,,,Kill Devil Hills
3527605ha,"Kill Devil Hills Condo, No Check In Day Restriction. On the Beach Road.",36.009716,-75.655417,"Kill Devil Hills, NC, USA",6,3.3,152,,,,,,2,4,2,2,condo,Yes,2013,Within an hour,,"June 9, 2017",condo,2,760,4,,Kill Devil Hills
3706221ha,Bombardier Bay Pet Friendly Affordable Vacation Home  Short walk to the beach !,36.015521,-75.660263,"Kill Devil Hills, NC, USA",17,4.8,152,155,,,65,,2,8,3,2,cottage,Yes,2013,Within 12 hours,100%,"June 9, 2017",cottage,,1200,8,,Kill Devil Hills
4132656ha,"Hamilton Cay at Bermuda Bay, 3 Bedroom Condo, Mini Water Park Access",36.00500593,-75.67792558,"Bermuda Bay, Kill Devil Hills, NC, USA",0,,210,,,,,,3,6,3,2,condo,Yes,2013,Within an hour,,"June 9, 2017",condo,,1700,6,,Kill Devil Hills
857635,"Ground floor Studio apartment, Pool and Hot Tub",,,"Kill Devil Hills, NC, USA",5,,229,200,,,,,1,4,2,1,apartment,Yes,2016,Within a few hours,100%,"May 25, 2017",apartment,1,,,house,Kill Devil Hills
1088951,"Shore to Please: 4 BR / 2 BA house in Kill Devil Hills, Sleeps 8",35.996814,-75.649502,"Kill Devil Hills, NC, USA",0,,242,,,,,,7,8,4,2,house,Yes,2009,Within a few hours,,"June 9, 2017",house,,,8,,Kill Devil Hills
1077711,"Silver Lining: 10 BR / 11 BA house in Kill Devil Hills, Sleeps 20",36.023976,-75.663671,"Kill Devil Hills, NC, USA",0,,,,,,,,7,20,10,11,house,Yes,2009,Within a few hours,,"June 9, 2017",house,,,20,,Kill Devil Hills
4480770ha,Summer School ~ RA140922,36.002277,-75.650688,"Kill Devil Hills, NC, USA",0,,585,,,,,,7,12,5,4,house,Yes,2012,Within an hour,,"June 9, 2017",house,,,12,,Kill Devil Hills
7009467ha,"""The WOW House"", Ocean Views, Great Beach Access",36.026173,-75.664992,"Kill Devil Hills, NC, USA",0,,472,,,,,13.0%,7,14,5,4,house,Yes,2004,Within a few days,60%,"June 2, 2017",house,,,14,,Kill Devil Hills
316270ha,"PET FRIENDLY, Kill Devil Hills CONDO, Pool, Elevator, Atlantic Ocean Views, WiFi",35.995362,-75.6461158,"Kill Devil Hills, NC, USA",36,4.9,183,225,,,,14.0%,2,8,3,2,condo,Yes,2004,Within a few hours,100%,"June 7, 2017",condo,3,1000,8,,Kill Devil Hills
125313ha,Great  Beach Vacations - Picasso Sun - 3 Minuite walk to deeded beach access.,35.9984662,-75.6494295,"Kill Devil Hills, NC, USA",8,4.5,164,,,,,12.75%,7,9,3,3,house,Yes,2005,Within a few hours,100%,"May 5, 2017",house,,1070,,,Kill Devil Hills
93215,Samantha's Beach Box - Easy Beach Walk!,36.02930069,-75.6678772,"Kill Devil Hills, NC, USA",13,4.3,140,,,,,,3,7,3,2,house,Yes,2006,Within 12 hours,100%,"June 2, 2017",house,,,7,,Kill Devil Hills
233709,Tsipas Oceanview Walk to Beach Restaurants Movies  Shopping!,35.99991608,-75.64915466,"Kill Devil Hills, NC, USA",24,4.7,237,,,,,10.0%,7,8,4,2,house,Yes,2009,Within 12 hours,100%,"June 9, 2017",house,,2500,8,,Kill Devil Hills
247509,Spring Rates are Currently Available!!,36.01462173,-75.66188812,"Kill Devil Hills, NC, USA",25,,173,125,,,,,3,10,4,3,house,Yes,2009,Within 12 hours,100%,"May 31, 2017",house,,,,,Kill Devil Hills
303119,The Sunsetter Beach House! Pool & Home Theater! Nice People Only!,,,"Kill Devil Hills, NC, USA",24,4.8,271,199,,,,12.75%,3,8,4,3,house,Yes,2010,Within a few hours,100%,"June 3, 2017",house,,2000,8,,Kill Devil Hills
307519ha,"Quiet, comfortable, & affordable - Kitty Hawk townhouse w/ ocean & sound views!",36.054985,-75.690626,"Kitty Hawk, NC, USA",29,4.8,153,85,90,,,12.75%,2,6,3,2,townhome,Yes,2010,Within 2 days,100%,"June 9, 2017",townhome,,1300,6,building,Kill Devil Hills
3474013ha,#60 Standahl's Como Beach. Elevator! Close to Avalon Pier & Wright Memorial!,36.038745,-75.672433,"Kill Devil Hills, NC, USA",12,4.8,328,,,,,,7,10,5,2,house,Yes,2008,Within an hour,,"May 17, 2017",house,,,10,,Kill Devil Hills
3474776ha,"#1322 Pelican's Perch. MP 6, Ocean Views, Only 20 Yards to Beach, Free WiFi!!",36.040775,-75.673533,"Kill Devil Hills, NC, USA",20,4.8,256,,,,,,3,10,4,3,house,Yes,2008,Within an hour,,"June 7, 2017",house,,,10,,Kill Devil Hills
3474180ha,"#1050 Love Shack. KDH, Cozy, Affordable Home w/Hot Tub, WiFi Internet Access!",36.047383,-75.686047,"Kill Devil Hills, NC, USA",11,3.2,,,,,,,3,8,3,2,house,Yes,2008,Within an hour,,"June 8, 2017",house,,,8,,Kill Devil Hills
3528555ha,"Devonshire At Bermuda Bay, No Check In Day Restrictions, Waterpark",36.00797911,-75.67055458,"Bermuda Bay, Kill Devil Hills, NC, USA",0,,179,,,,,,3,4,2,2,house,Yes,2013,Within an hour,,"June 9, 2017",house,,1620,4,,Kill Devil Hills
3528575ha,"Cambridge Cove at Bermuda Bay, Flexible Stay Patterns, Waterpark Access",36.00763038,-75.67343063,"Bermuda Bay, Kill Devil Hills, NC, USA",0,,159,,,,,,3,4,2,2,townhome,Yes,2013,Within an hour,,"June 9, 2017",townhome,,1160,4,,Kill Devil Hills
479480,Beautiful Oceanfront Home for rent,36.0058409,-75.651464,"Kill Devil Hills, NC, USA",0,,,,,,,,7,20,8,1,house,Yes,2013,,,"June 7, 2017",house,,4000,20,,Kill Devil Hills
584738,'Southern Aire' OBX Oceanfront! New windows/deck May 16 Linens included!,36.040193,-75.671959,"Kill Devil Hills, NC, USA",11,,371,,,,,12.75%,7,10,3,2,house,Yes,2014,Within a few hours,100%,"June 3, 2017",house,,1700,,,Kill Devil Hills
3832955ha,"#1470 Dollar Short. Step to Beach Access, Pool, Hot Tub, Pool Table, Wifi!",36.0538839,-75.6817355,"Kill Devil Hills, NC, USA",14,4.6,259,,,,,,3,11,4,4,house,Yes,2008,Within an hour,,"June 9, 2017",house,,,11,,Kill Devil Hills
653373,Beach access Between Highway 7 1/2 Mp walking distance,36.028199,-75.667499,"Kill Devil Hills, NC, USA",1,,214,,,,,9.0%,7,8,3,1,cottage,Yes,2014,Within an hour,100%,"May 25, 2017",cottage,,,8,,Kill Devil Hills
694007,OWENS  BURROW COTTAGE * SHORT WALK TO  BEACH *   WELL EQUIPPED * 9 1/2 MP,35.99614018,-75.6482657,"Kill Devil Hills, NC, USA",15,4.9,163,,,,,12.75%,7,8,3,2,house,Yes,2015,Within a few hours,100%,"June 9, 2017",house,,960,,,Kill Devil Hills
758879,"THE WRIGHT PLACE: 3 BR / 2 BA oceanfront in Kill Devil Hills, Sleeps 6",36.0291843,-75.6649714,"Kill Devil Hills, NC, USA",0,,164,,,,,,7,6,3,2,house,Yes,2007,Within a day,,"June 9, 2017",house,,,6,,Kill Devil Hills
4050476ha,"Oceanfront Vacation Getaway for your Family or Group.  10 Bdrms, Elevator, Pool, Pet Friendly",36.009044,-75.6534099,"Kill Devil Hills, NC, USA",0,,524,,,,,,7,20,10,10,house,Yes,2015,,,"June 9, 2017",house,,,20,,Kill Devil Hills
774068,Fabulous Ocean Views in this Beautifully Decorated Family Friendly Home - 779,36.03378117,-75.6681006,"Kill Devil Hills, NC, USA",0,,356,,,,,,7,16,8,7,house,Yes,2005,Within a day,,"June 9, 2017",house,,,16,,Kill Devil Hills
774064,"OCEANFRONT, PET FREINDLY, Charming Outer Banks Style - 303",36.0013239,-75.648775,"Kill Devil Hills, NC, USA",1,,285,,,,,,7,14,7,4,house,Yes,2005,Within a day,,"June 9, 2017",house,,,14,,Kill Devil Hills
4109048ha,GREAT RATES AND JUST 600 YARDS TO BEACH WITH 3 BEDROOMS COMMUNITY BOAT LAUNCH,36.0398629,-75.679307,"Kill Devil Hills, NC, USA",0,,111,,,,,,7,5,3,1,house,No,2012,Within 12 hours,,"June 6, 2017",house,,960,5,,Kill Devil Hills
834297,SP203N-Beach Road in the heart of Kill Devil Hills,35.9984606,-75.6479947,"Kill Devil Hills, NC, USA",0,,277,,,,,,2,8,3,3,house,No,2008,Within an hour,,"June 9, 2017",house,,,,,Kill Devil Hills
857156,WEEKLY PRICE REDUCED FOR SUMMER 2017,36.0391504,-75.6823434,"Kill Devil Hills, NC, USA",2,,171,150,,,50,12.75%,3,8,3,2,cottage,Yes,2016,Within a few days,70%,"May 26, 2017",cottage,,1000,8,,Kill Devil Hills
4272601ha,New 2017 Oceanfront 9 Bedroom Nags Head Luxury Home!,35.99161,-75.64519,"Nags Head, NC, USA",0,,,,,,,,4,18,9,9,house,Yes,2013,Within an hour,,"June 9, 2017",house,,5000,18,,Kill Devil Hills
4302441ha,"Its A Shore Thing: 5 BR / 4 BA house in Kill Devil Hills, Sleeps 10",35.999113,-75.649373,"Kill Devil Hills, NC, USA",0,,517,,,,,,7,10,5,4,house,Yes,2016,Within a few hours,,"June 9, 2017",house,,,10,,Kill Devil Hills
4302347ha,The Penthouse: End Unit Condo on Top Floor Offers Best Oceanfront Views on 2 Sides,36.0257625,-75.6643234,"Kill Devil Hills, NC, USA",1,,400,,,,,,3,8,3,3,condo,Yes,2016,Within a few hours,,"June 9, 2017",condo,,,8,,Kill Devil Hills
4302444ha,"Park Place: Land on Park Place and bring your pet! Great pool,hot tub, elevator and oceanfront!",36.018006,-75.658543,"Kill Devil Hills, NC, USA",5,4.4,581,,,,,,3,24,12,10,house,Yes,2016,Within a few hours,,"June 9, 2017",house,,,24,,Kill Devil Hills
4302442ha,"Kill Devil Hills 20: 12 BR / 11 BA house in Kill Devil Hills, Sleeps 34",36.01141,-75.654515,"Kill Devil Hills, NC, USA",2,4.5,496,,,,,,3,34,12,11,house,Yes,2016,Within a few hours,,"June 9, 2017",house,,,34,,Kill Devil Hills
4302344ha,Big Kahuna: One of the Best Views in the Building! Oceanfront Pool View w/Hot Tub,36.0257625,-75.6643234,"Kill Devil Hills, NC, USA",2,4.5,307,,,,,,3,7,3,3,townhome,Yes,2016,Within a few hours,,"June 9, 2017",townhome,,,7,,Kill Devil Hills
4302440ha,"Greenwaves III: 12 BR / 11 BA house in Kill Devil Hills, Sleeps 24",36.0190364,-75.6595936,"Kill Devil Hills, NC, USA",2,,,,,,,,3,24,12,11,house,Yes,2016,Within a few hours,,"June 9, 2017",house,,,24,,Kill Devil Hills
4302443ha,"Boardwalk: Land on Boardwalk and enjoy the ocean, pool, hot tub and rec room. Pet friendly too!",36.01813,-75.658617,"Kill Devil Hills, NC, USA",5,4.8,581,,,,,,7,24,12,10,house,Yes,2016,Within a few hours,,"June 9, 2017",house,,,24,,Kill Devil Hills
4302446ha,"Beach Happy: Oceanfront 14 bedroom, private walkway, pool and hot tub. Two rec rooms.",36.0274829,-75.664092,"Kill Devil Hills, NC, USA",2,4.5,578,,,,,,3,28,14,12,house,Yes,2016,Within a few hours,,"June 9, 2017",house,,,28,,Kill Devil Hills
4302342ha,Cowabungalow: Elegantly Furnished Condo with Oceanfront Terrace,36.0257625,-75.6643234,"Kill Devil Hills, NC, USA",1,,341,,,,,,3,7,3,3,condo,Yes,2016,Within a few hours,,"June 9, 2017",condo,,,7,,Kill Devil Hills
4302445ha,"Best Of My Love: Pub and theater room, private pool, hot tub, elevator, oceanfront with 14 bedrooms.",35.997909,-75.646969,"Kill Devil Hills, NC, USA",9,4.8,,,,,,,3,28,14,14,house,Yes,2016,Within a few hours,,"June 9, 2017",house,,,28,,Kill Devil Hills
4302343ha,Gilligans: Leather and Hardwoods Throughout Luxurious Oceanfront Condo,36.0257625,-75.6643234,"Kill Devil Hills, NC, USA",2,,373,,,,,,3,9,3,3,townhome,Yes,2016,Within a few hours,,"June 9, 2017",townhome,,,9,,Kill Devil Hills
4302349ha,South Beach: Top Floor End Unit Oceanfront Condo w/Wide Angle Views,36.0257625,-75.6643234,"Kill Devil Hills, NC, USA",0,,614,,,,,,3,9,3,3,condo,Yes,2016,Within a few hours,,"June 9, 2017",condo,,,9,,Kill Devil Hills
4332011ha,"Surfin Gypsy: Cute oceanside, pet friendly home with a private hot tub.",35.993861,-75.647194,"Kill Devil Hills, NC, USA",9,4.9,86,,,,,,7,8,4,2,house,Yes,2016,Within a few hours,,"June 9, 2017",house,,,8,,Kill Devil Hills
4332132ha,"Sand Flee: Oceanfront condo, community pool, grilling area, outside showers.",36.017787,-75.658524,"Kill Devil Hills, NC, USA",1,,,,,,,,7,4,2,2,condo,Yes,2016,Within a few hours,,"June 9, 2017",condo,,,4,,Kill Devil Hills
4331856ha,"Crystal Shores Condo 302: 3 BR / 2 BA condo in Kill Devil Hills, Sleeps 6",36.030339,-75.665895,"Kill Devil Hills, NC, USA",2,,,,,,,,7,6,3,2,condo,Yes,2016,Within a few hours,,"June 9, 2017",condo,,,6,,Kill Devil Hills
4331893ha,The Wright Place: Roomy Top Floor Oceanfront Condo with Vaulted Ceilings,36.009846,-75.654645,"Kill Devil Hills, NC, USA",4,,389,,,,,,3,4,2,2,condo,Yes,2016,Within a few hours,,"June 9, 2017",condo,,,4,,Kill Devil Hills
4332014ha,Ahhh...Notta Worry: You'll be oceanside with a private pool and hot tub.,36.0314853,-75.6681273,"Kill Devil Hills, NC, USA",3,,128,,,,,,3,8,4,3,house,Yes,2016,Within a few hours,,"June 9, 2017",house,,,8,,Kill Devil Hills
4332136ha,"Star of the Sea: Ocean views, top level condo, private walkway to the beach, community pool.",36.028326,-75.664543,"Kill Devil Hills, NC, USA",1,,99,,,,,,3,4,2,2,condo,Yes,2016,Within a few hours,,"June 9, 2017",condo,,,4,,Kill Devil Hills
4331890ha,Tutters Two: Oceanfront Wheelchair Friendly Condo w/2 Sides for Extra Views,36.009846,-75.654645,"Kill Devil Hills, NC, USA",4,4.5,374,,,,,,3,4,2,2,condo,Yes,2016,Within a few hours,,"June 9, 2017",condo,,,4,,Kill Devil Hills
4331855ha,"Crystal Shores 202: Oceanfront condo, community pool, elevator and grilling area.",36.030339,-75.665895,"Kill Devil Hills, NC, USA",2,,,,,,,,3,6,3,2,condo,Yes,2016,Within a few hours,,"June 9, 2017",condo,,,6,,Kill Devil Hills
4332013ha,"Sweet Home Carolina: 4 BR / 5 BA house in Kill Devil Hills, Sleeps 8",36.002096,-75.651146,"Kill Devil Hills, NC, USA",2,4.5,134,,,,,,3,8,4,5,house,Yes,2016,Within a few hours,,"June 9, 2017",house,,,8,,Kill Devil Hills
4332220ha,Under The Boardwalk: Oceanside condo on the first floor with YMCA privileges.,36.007078,-75.653486,"Kill Devil Hills, NC, USA",4,,,,,,,,7,6,3,3,condo,Yes,2016,Within a few hours,,"June 9, 2017",condo,,,6,,Kill Devil Hills
4332012ha,"The Sandbox: Play in The Sandbox, enjoy your pool and hot tub and close to the ocean!",36.038159,-75.672161,"Kill Devil Hills, NC, USA",8,4.8,110,,,,,,3,8,4,4,house,Yes,2016,Within a few hours,,"June 9, 2017",house,,,8,,Kill Devil Hills
4331884ha,Morning Sunrise: Sunrises Everyday from Oceanfront Balcony,36.009846,-75.654645,"Kill Devil Hills, NC, USA",3,4.3,360,,,,,,3,4,2,2,condo,Yes,2016,Within a few hours,,"June 9, 2017",condo,,,4,,Kill Devil Hills
4332223ha,"Banana Beach is located on the top floor, elevator in the building, YMCA privileges.",36.007078,-75.653486,"Kill Devil Hills, NC, USA",0,,71,,,,,,7,6,3,3,condo,Yes,2016,Within a few hours,,"June 9, 2017",condo,,,6,,Kill Devil Hills
4331983ha,"The Legacy: 4 bedroom, oceanside with a private pool and hot tub. Short stays available.",35.993038,-75.645162,"Nags Head, NC, USA",0,,,,,,,,3,10,4,3,house,Yes,2016,Within a few hours,,"June 9, 2017",house,,,10,,Kill Devil Hills
4332134ha,"Sandcastle 7: 2 bedroom oceanfront condo, community pool and grilling area, ocean views.",36.017787,-75.658524,"Kill Devil Hills, NC, USA",0,,142,,,,,,7,4,2,2,condo,Yes,2016,Within a few hours,,"June 9, 2017",condo,,,4,,Kill Devil Hills
4332008ha,"McLovin: Cute 4 bedroom on the oceanside, pet friendly and private hot tub.",35.994605,-75.646674,"Kill Devil Hills, NC, USA",0,,,,,,,,7,8,4,3,house,Yes,2016,Within a few hours,,"June 9, 2017",house,,,8,,Kill Devil Hills
4331954ha,Our Retreat: Quick walk to the beach in this oceanside condo with a community pool.,35.995685,-75.6479389,"Kill Devil Hills, NC, USA",4,4.5,57,,,,,,3,6,3,2,condo,Yes,2016,Within a few hours,,"June 9, 2017",condo,,,6,,Kill Devil Hills
4331865ha,OBX Whale: Top Floor Oceanfront Condo w/High Ceilings and Sunset Views,36.0263437,-75.6634994,"Kill Devil Hills, NC, USA",0,,457,,,,,,3,7,3,3,condo,Yes,2016,Within a few hours,,"June 9, 2017",condo,,,7,,Kill Devil Hills
4332222ha,"Seascape Escape: 2 BR / 2 BA condo in Kill Devil Hills, Sleeps 5",36.007078,-75.653486,"Kill Devil Hills, NC, USA",5,4.6,264,,,,,,3,5,2,2,condo,Yes,2016,Within a few hours,,"June 9, 2017",condo,,,5,,Kill Devil Hills
4332221ha,Reelaxation: Condo on the oceanside with an elevator. Spacious decks for relaxing.,36.007078,-75.653486,"Kill Devil Hills, NC, USA",0,,264,,,,,,3,6,2,2,condo,Yes,2016,Within a few hours,,"June 9, 2017",condo,,,6,,Kill Devil Hills
4331952ha,Salmon Shores: Oceanside condo with a community pool and covered parking.,35.995685,-75.6479389,"Kill Devil Hills, NC, USA",0,,64,,,,,,3,6,3,2,condo,Yes,2016,Within a few hours,,"June 9, 2017",condo,,,6,,Kill Devil Hills
4331887ha,"First Flight Retreat 215: Beachy and Breathable Condo, Oceanfront + Access to Saltwater Pool",36.009846,-75.654645,"Kill Devil Hills, NC, USA",4,,303,,,,,,3,4,1,1,condo,Yes,2016,Within a few hours,,"June 9, 2017",condo,,,4,,Kill Devil Hills
4332009ha,"Serenity Now: 7 BR / 5 BA house in Kill Devil Hills, Sleeps 16",35.999045,-75.648767,"Kill Devil Hills, NC, USA",2,,246,,,,,,3,16,7,5,house,Yes,2016,Within a few hours,,"June 9, 2017",house,,,16,,Kill Devil Hills
4331731ha,Bermuda Bay 109: 3 Stories in Colorful Townhome District and Access to Community Water Park,36.0075525,-75.6715421,"Bermuda Bay, Kill Devil Hills, NC, USA",2,,142,,,,,,3,8,2,2,townhome,Yes,2016,Within a few hours,,"June 9, 2017",townhome,,,8,,Kill Devil Hills
4332133ha,"Wright Nice View: Ocean views, oceanfront condo, private oceanfront deck, community pool.",36.017787,-75.658524,"Kill Devil Hills, NC, USA",0,,146,,,,,,7,4,2,2,condo,Yes,2016,Within a few hours,,"June 9, 2017",condo,,,4,,Kill Devil Hills
4331883ha,Simplicity: Simple and Clean Oceanfront Escape w/King Bed,36.009846,-75.654645,"Kill Devil Hills, NC, USA",4,4.8,224,,,,,,3,4,1,1,condo,Yes,2016,Within a few hours,,"June 9, 2017",condo,,,4,,Kill Devil Hills
4331953ha,"Ocean Fun: Condo on the oceanside with a community pool, 2 park grills and covered parking.",35.995685,-75.6479389,"Kill Devil Hills, NC, USA",4,4.5,64,,,,,,3,6,3,2,condo,Yes,2016,Within a few hours,,"June 9, 2017",condo,,,6,,Kill Devil Hills
4331862ha,"OBXcellent: Oceanfront condo, Kill Devil Hills, community pool.",36.0257625,-75.6643234,"Kill Devil Hills, NC, USA",0,,214,,,,,,3,6,2,3,townhome,Yes,2016,Within a few hours,,"June 9, 2017",townhome,,,6,,Kill Devil Hills
955291,Fully equipped and perfect for families - 170,36.027106,-75.666706,"Kill Devil Hills, NC, USA",0,,128,,,,,,7,8,4,3,house,Yes,2005,Within a day,,"June 9, 2017",house,,,8,,Kill Devil Hills
955277,Outstanding decor & a short walk to the beach with a private pool! - 087,36.001041,-75.649955,"Kill Devil Hills, NC, USA",0,,199,,,,,,7,10,5,5,house,Yes,2005,Within a day,,"June 9, 2017",house,,,10,,Kill Devil Hills
955344,Spacious floor plan with lovely decor and fully equipped -733,36.00222,-75.65122,"Kill Devil Hills, NC, USA",0,,137,,,,,,7,10,5,5,house,Yes,2005,Within a day,,"June 9, 2017",house,,,10,,Kill Devil Hills
955345,Wonderfully decorated with ample space and walking distance to the beach 737,36.033298,-75.669276,"Kill Devil Hills, NC, USA",0,,,,,,,,7,8,4,4,house,Yes,2005,Within a day,,"June 9, 2017",house,,,8,,Kill Devil Hills
955312,Oceanfront duplex with a pool - 307,36.0140466,-75.656147,"Kill Devil Hills, NC, USA",0,,171,,,,,,7,10,5,4,house,Yes,2005,Within a day,,"June 9, 2017",house,,,10,,Kill Devil Hills
955311,Oceanfront duplex with a pool and spacious living area - 305,36.0137249,-75.6563824,"Kill Devil Hills, NC, USA",0,,192,,,,,,7,10,5,4,house,Yes,2005,Within a day,,"June 9, 2017",house,,,10,,Kill Devil Hills
955336,Nicely decorated family beach cottage with ocean views - 613,36.031,-75.667889,"Kill Devil Hills, NC, USA",0,,128,,,,,,7,8,4,2,house,Yes,2005,Within a day,,"June 9, 2017",house,,,8,,Kill Devil Hills
955360,Comfortable and quiet. Perfectly designed for families - H4,36.002556,-75.650043,"Kill Devil Hills, NC, USA",0,,171,,,,,,7,10,5,3,house,Yes,2005,Within a day,,"June 9, 2017",house,,,10,,Kill Devil Hills
955357,Peaceful Oceanfront Setting - Community Pool - GST-100,36.0287443,-75.6661064,"Kill Devil Hills, NC, USA",0,,142,,,,,,7,6,3,2,house,Yes,2005,Within a day,,"June 9, 2017",house,1,,6,,Kill Devil Hills
955356,Oceanfront - Community Pool - Top Floor - GS-300,36.022297,-75.661209,"Kill Devil Hills, NC, USA",0,,185,,,,,,7,8,3,2,house,Yes,2005,Within a day,,"June 9, 2017",house,3,,8,,Kill Devil Hills
955359,Comfortable and perfect for a small family- H2,36.003042,-75.649531,"Kill Devil Hills, NC, USA",0,,142,,,,,,7,6,3,2,house,Yes,2005,Within a day,,"June 9, 2017",house,,,6,,Kill Devil Hills
955358,This little beach bungalow is the perfect getaway! - H1,36.003042,-75.649531,"Kill Devil Hills, NC, USA",0,,156,,,,,,7,2,1,1,house,Yes,2005,Within a day,,"June 9, 2017",house,,,2,,Kill Devil Hills
4244203ha,"10 Bedroom Oceanfront Centrally Located with Elevator, Private Pool, Cabana, Private Beach Access",36.021323,-75.660625,"Kill Devil Hills, NC, USA",0,,571,,,,,,7,24,10,10,house,Yes,2015,,,"June 8, 2017",house,,,24,,Kill Devil Hills
4359005ha,350 Audrey Cottage - Sunday - 3 Bedroom Ocean Front in Kill Devil Hills,36.012676,-75.655181,"Kill Devil Hills, NC, USA",0,,179,,,,,,3,7,3,2,house,No,2003,Within an hour,,"June 9, 2017",house,,,7,,Kill Devil Hills
4360798ha,Kill Devil Chill ~ RA127718,36.004755,-75.652766,"Kill Devil Hills, NC, USA",0,,195,,,,,,7,7,3,2,house,Yes,2012,Within an hour,,"June 9, 2017",house,,,7,,Kill Devil Hills
4358985ha,202 Bubba's Lookout - Sunday - Beautiful Water Views and Open Decks,36.038235,-75.687576,"Kill Devil Hills, NC, USA",0,,156,,,,,,7,4,2,1,house,Yes,2003,Within an hour,,"June 9, 2017",house,,,4,,Kill Devil Hills
4360612ha,Sea Oats 3C ~ RA127624,36.026478,-75.664748,"Kill Devil Hills, NC, USA",0,,155,,,,,,7,6,2,2,condo,Yes,2012,Within an hour,,"June 9, 2017",condo,,,6,,Kill Devil Hills
4360663ha,Carolina Frog ~ RA127647,36.007706,-75.671632,"Bermuda Bay, Kill Devil Hills, NC, USA",0,,155,,,,,,7,6,3,3,house,Yes,2012,Within an hour,,"June 9, 2017",house,,,6,,Kill Devil Hills
4360589ha,Grande Ritz Paradise ~ RA127603,36.011127,-75.654897,"Kill Devil Hills, NC, USA",0,,,,,,,,7,44,18,19,house,Yes,2012,Within an hour,,"June 9, 2017",house,,,44,,Kill Devil Hills
4360627ha,The Hammock Cottage ~ RA127637,36.042127,-75.675581,"Kill Devil Hills, NC, USA",0,,196,,,,,,7,8,3,1,house,Yes,2012,Within an hour,,"June 9, 2017",house,,,8,,Kill Devil Hills
4360685ha,Ocean Retreat ~ RA127662,36.044505,-75.678334,"Kill Devil Hills, NC, USA",0,,143,,,,,,7,8,3,2,house,Yes,2012,Within an hour,,"June 9, 2017",house,,,8,,Kill Devil Hills
4360605ha,The Sand Trap ~ RA127619,36.037777,-75.670483,"Kill Devil Hills, NC, USA",0,,595,,,,,,7,10,4,3,house,Yes,2012,Within an hour,,"June 9, 2017",house,,,10,,Kill Devil Hills
4360653ha,Wright Off ~ RA127641,35.998371,-75.648931,"Kill Devil Hills, NC, USA",0,,365,,,,,,7,12,6,6,house,Yes,2012,Within an hour,,"June 9, 2017",house,,,12,,Kill Devil Hills
4360596ha,Wood Shack ~ RA127609,36.052042,-75.68091,"Kill Devil Hills, NC, USA",0,,210,,,,,,7,10,4,3,house,Yes,2012,Within an hour,,"June 9, 2017",house,,,10,,Kill Devil Hills
4360602ha,The Coastal Cottage ~ RA127616,36.054766,-75.68329,"Kill Devil Hills, NC, USA",0,,280,,,,,,7,8,4,3,house,Yes,2012,Within an hour,,"June 9, 2017",house,,,8,,Kill Devil Hills
4360688ha,Tail Wind ~ RA127664,36.016632,-75.659918,"Kill Devil Hills, NC, USA",0,,715,,,,,,7,10,4,4,house,Yes,2012,Within an hour,,"June 9, 2017",house,,,10,,Kill Devil Hills
4360655ha,Fitzgerald ~ RA127642,36.052001,-75.681264,"Kill Devil Hills, NC, USA",0,,180,,,,,,7,10,4,2,house,Yes,2012,Within an hour,,"June 9, 2017",house,,,10,,Kill Devil Hills
4360625ha,Sea Winds #5 ~ RA127635,36.034716,-75.6702,"Kill Devil Hills, NC, USA",0,,345,,,,,,7,18,6,7,house,Yes,2012,Within an hour,,"June 9, 2017",house,,,18,,Kill Devil Hills
4360593ha,Sounds Delightful ~ RA127606,36.047009,-75.690194,"Kill Devil Hills, NC, USA",0,,235,,,,,,7,9,4,2,house,Yes,2012,Within an hour,,"June 9, 2017",house,,,9,,Kill Devil Hills
4360613ha,Sea Oats 2C ~ RA127625,36.026478,-75.664748,"Kill Devil Hills, NC, USA",0,,335,,,,,,7,8,2,2,condo,Yes,2012,Within an hour,,"June 9, 2017",condo,,,8,,Kill Devil Hills
4360624ha,Fitz's Wave Watcher ~ RA127634,36.052165,-75.680988,"Kill Devil Hills, NC, USA",0,,130,,,,,,7,10,4,3,house,Yes,2012,Within an hour,,"June 9, 2017",house,,,10,,Kill Devil Hills
4360677ha,The Ocean Winds ~ RA127656,36.004912,-75.652262,"Kill Devil Hills, NC, USA",1,,155,,,,,,7,8,3,2,house,Yes,2012,Within an hour,,"June 9, 2017",house,,,8,,Kill Devil Hills
4360532ha,WindOver Cottage ~ RA127567,36.019082,-75.663337,"Kill Devil Hills, NC, USA",0,,,,,,,,7,10,5,2,house,Yes,2012,Within an hour,,"June 9, 2017",house,,,10,,Kill Devil Hills
4360621ha,Big Red Home ~ RA127632,36.013772,-75.661403,"Kill Devil Hills, NC, USA",0,,198,,,,,,7,10,4,2,house,Yes,2012,Within an hour,,"June 9, 2017",house,,,10,,Kill Devil Hills
4360587ha,SEAesta Home ~ RA127602,36.004138,-75.65137,"Kill Devil Hills, NC, USA",0,,,,,,,,7,30,14,13,house,Yes,2012,Within an hour,,"June 9, 2017",house,,,30,,Kill Devil Hills
4360618ha,II Views Vacation Home ~ RA127629,36.016693,-75.66134,"Kill Devil Hills, NC, USA",0,,123,,,,,,7,10,4,3,house,Yes,2012,Within an hour,,"June 9, 2017",house,,,10,,Kill Devil Hills
4360524ha,Overseas Home ~ RA127559,36.033477,-75.671531,"Kill Devil Hills, NC, USA",0,,155,,,,,,7,6,3,1,house,Yes,2012,Within an hour,,"June 9, 2017",house,,,6,,Kill Devil Hills
4348944ha,"Seven Cs 402: Top level condo, oceanfront, community pool, private community walkway to the beach.",36.028326,-75.664543,"Kill Devil Hills, NC, USA",1,,99,,,,,,3,6,2,2,condo,Yes,2016,Within a few hours,,"June 9, 2017",condo,,,6,,Kill Devil Hills
4342657ha,"Kill Devil Hills 125: 3 BR / 2 BA house in Kill Devil Hills, Sleeps 6",35.997906,-75.6484399,"Kill Devil Hills, NC, USA",2,,86,,,,,,7,6,3,2,house,Yes,2016,Within a few hours,,"June 9, 2017",house,,,6,,Kill Devil Hills
4425970ha,"New 2017 Luxury Oceanfront Community! All the amenities you need. Seasonal Cabana Service, Daily Light Housekeeping and Event space. Open August 2017!",35.98947,-75.64414,"Nags Head, NC, USA",0,,381,,,,,,3,12,6,8,house,Yes,2013,Within an hour,,"June 9, 2017",house,,,12,,Kill Devil Hills
4273258ha,Modern Oceanfront Condo with Beach Views and Community Pool,36.02833,-75.66673,"Kill Devil Hills, NC, USA",0,,385,,,,,,3,4,2,2,condo,Yes,2013,Within an hour,,"June 9, 2017",condo,,1150,4,,Kill Devil Hills
4424027ha,"New Luxury Oceanfront Home in Kill Devil Hills! Ocean Views, Pool, Hot Tub, Tiki Bar, Cabana Service & More!",36.02361,-75.66418,"Kill Devil Hills, NC, USA",0,,,,,,,,3,60,24,25,house,Yes,2013,Within an hour,,"June 9, 2017",house,,,60,,Kill Devil Hills
994504,Luxury Oceanfront - Royal Atlantic Sleeps up to 26,,,"Kill Devil Hills, NC, USA",0,,674,,,,,,7,26,10,10,house,No,2017,Within a few days,80%,"May 21, 2017",house,,,,,Kill Devil Hills
955381,Oceanfront traditional OBX cottage great for families! - 153,36.001199,-75.648588,"Kill Devil Hills, NC, USA",0,,242,,,,,,7,12,6,3,house,Yes,2005,Within a day,,"June 9, 2017",house,,,12,,Kill Devil Hills
4461616ha,"Skipper's Sunrise: Oceanfront, private pool and hot tub, rec room with pool table.",36.021961,-75.66101,"Kill Devil Hills, NC, USA",0,,,,,,,,3,20,8,5,house,Yes,2016,Within a few hours,,"June 9, 2017",house,,,20,,Kill Devil Hills
4480789ha,The Remedy ~ RA140939,36.005844,-75.651459,"Kill Devil Hills, NC, USA",0,,,,,,,,7,18,8,6,house,Yes,2012,Within an hour,,"June 9, 2017",house,,,18,,Kill Devil Hills
4480769ha,Summer Reflections ~ RA140921,36.032204,-75.67085,"Kill Devil Hills, NC, USA",0,,225,,,,,,7,8,3,2,house,Yes,2012,Within an hour,,"June 9, 2017",house,,,8,,Kill Devil Hills
4480781ha,Stay here on Porpoise ~ RA140932,36.0089,-75.655917,"Kill Devil Hills, NC, USA",0,,245,,,,,,7,10,4,3,house,Yes,2012,Within an hour,,"June 9, 2017",house,,,10,,Kill Devil Hills
4480786ha,The Banks 1F ~ RA140936,35.995143,-75.648086,"Kill Devil Hills, NC, USA",0,,155,,,,,,7,4,1,1,house,Yes,2012,Within an hour,,"June 9, 2017",house,,,4,,Kill Devil Hills
4366775ha,Gorgeous Ocean Views from Wave Watcher,36.01779,-75.66071,"Kill Devil Hills, NC, USA",1,,271,,,,,,3,4,2,2,condo,Yes,2013,Within an hour,,"June 9, 2017",condo,,900,4,,Kill Devil Hills
4359856ha,"Delightful Condo, Located only 0.2 miles from the beach",36.00566,-75.65644,"Kill Devil Hills, NC, USA",1,,216,,,,,,2,4,2,2,condo,Yes,2013,Within an hour,,"June 9, 2017",condo,,999,4,,Kill Devil Hills
4442579ha,Enjoy the ocean views and the sound of the waves at Sea Oats,36.02647,-75.66695,"Kill Devil Hills, NC, USA",0,,265,,,,,,3,4,2,2,condo,Yes,2013,Within an hour,,"June 9, 2017",condo,,888,4,,Kill Devil Hills
4273254ha,Vibrant 3 story 3 bedroom home with access to seasonal miniature waterpark,36.00783,-75.67451,"Kill Devil Hills, NC, USA",0,,209,,,,,,3,6,3,2,house,Yes,2013,Within an hour,,"June 9, 2017",house,,1620,6,,Kill Devil Hills
4469974ha,"Swell Time: 2 bedroom first floor condo, oceanside, YMCA amenities, short walk to the beach.",36.007078,-75.653486,"Kill Devil Hills, NC, USA",2,,207,,,,,,3,5,2,2,condo,Yes,2016,Within a few hours,,"June 9, 2017",condo,,,5,,Kill Devil Hills
1045496,Outer Banks Beach Club Welcomes You!,,,"Kill Devil Hills, NC, USA",0,,,,,,,13.5%,,4,1,1,villa,No,2017,,,"May 22, 2017",villa,,,,,Kill Devil Hills
4522666ha,"Ritzy Roost: 2 Bedroom condo, semi-oceanfront, YMCA amenity, elevator for the building.",36.007078,-75.653486,"Kill Devil Hills, NC, USA",0,,136,,,,,,3,4,2,2,condo,No,2016,Within a few hours,,"June 9, 2017",condo,,,,,Kill Devil Hills
4515881ha,GOING TO CAROLINA: 10 BR / 9.5 BA house in Kill Devil Hills,36.006012,-75.65154,"Kill Devil Hills, NC, USA",0,,,,,,,,4,20,10,9,house,Yes,2008,Within a day,,"June 9, 2017",house,,,,,Kill Devil Hills
1060105,Driftin Sands 3 Bedroom Cottage,36.03736,-75.67387,"Kill Devil Hills, NC, USA",0,,187,,,,,,1,6,3,1,hotel,Yes,2017,Within a day,,"June 9, 2017",hotel,,1200,6,,Kill Devil Hills
4554070ha,A PROMISE KEPT: 4 BR / 3.5 BA house in Kill Devil Hills,36.000856,-75.652271,"Kill Devil Hills, NC, USA",0,,385,,,,,,1,8,4,3,house,Yes,2008,Within a day,,"June 9, 2017",house,,,,,Kill Devil Hills
4560621ha,"OBX Rental,  3 levels, beautiful, quiet soundside, crows nest w/ocean veiw",,,"Kill Devil Hills, NC, USA",0,,215,215,,,150,,6,8,4,2,house,No,2017,,,"May 20, 2017",house,,,,,Kill Devil Hills
4273266ha,Vibrant 3 Bdrm Vacation Home with access to seasonal miniature waterpark,36.00783,-75.67451,"Kill Devil Hills, NC, USA",0,,275,,,,,,3,6,3,4,house,Yes,2013,Within an hour,,"June 9, 2017",house,,2489,6,,Kill Devil Hills
1082231,Hidden Treasure-In  heart of Kill Devil Hills-Pool-Fri. check-in-avoid  traffic,35.994274,-75.660221,"Kill Devil Hills, NC, USA",0,,314,,,,125,12.75%,7,9,4,2,house,Yes,2017,,,"June 4, 2017",house,,,,,Kill Devil Hills
1081207,"OBX TIMESHARE, Enjoy the Beautiful Natural Barrier Islands of North Carolina",,,"Kill Devil Hills, NC, USA",0,,115,115,,,,,7,6,2,2,apartment,No,2017,,,"May 22, 2017",apartment,,,,,Kill Devil Hills
4273265ha,Spacious 2 Bdrm Vacation Home in the heart of Bermuda Bay,36.00783,-75.67451,"Kill Devil Hills, NC, USA",0,,194,,,,,,3,4,2,3,house,Yes,2013,Within an hour,,"June 9, 2017",house,,1714,4,,Kill Devil Hills
4273261ha,Richly Furnished 3 Bdrm Flexstay Vacation Home,36.00783,-75.67451,"Kill Devil Hills, NC, USA",0,,283,,,,,,3,6,3,3,house,Yes,2013,Within an hour,,"May 22, 2017",house,,2012,6,,Kill Devil Hills
4555377ha,OUR SANDPIT: 5 BR / 5.5 BA house in Kill Devil Hills,35.997155,-75.648977,"Kill Devil Hills, NC, USA",0,,399,,,,,,7,10,5,5,house,Yes,2008,Within a day,,"June 9, 2017",house,,,,,Kill Devil Hills
4584807ha,Beautiful Beach Home just blocks for the Sandy Shore,36.01822,-75.66349,"Kill Devil Hills, NC, USA",0,,336,,,,,,3,8,4,3,house,Yes,2013,Within an hour,,"June 9, 2017",house,,2284,8,,Kill Devil Hills
4273251ha,Spacious Single Level Condo with Water Park Access,36.00783,-75.67451,"Kill Devil Hills, NC, USA",0,,203,,,,,,3,6,3,2,condo,Yes,2013,Within an hour,,"June 9, 2017",condo,,1700,6,,Kill Devil Hills
4587836ha,Avalon Beach Bungalow OBX (Walk To Beach + Pier),,,"Kill Devil Hills, NC, USA",0,,249,197,,,125,13.5%,2,5,2,1,bungalow,No,2015,,,"June 5, 2017",bungalow,,700,,,Kill Devil Hills
4269469ha,"2nd Level Flexstay Condo, Conveniently located across the street from the Beach",36.00956,-75.6557,"Kill Devil Hills, NC, USA",0,,169,,,,,,2,4,2,2,condo,Yes,2013,Within an hour,,"June 9, 2017",condo,,760,4,,Kill Devil Hills
712993,Ocean Front Home on the Beach!!  Newly refurbished!,36.187911,-75.753321,"Duck, NC, USA",41,4.8,500,,,,,12.75%,2,8,4,2,house,Yes,2012,Within a few hours,100%,"June 9, 2017",house,,1800,8,,Kill Devil Hills
566092,NEW*** COUPLES RETREAT IN DUCK,,,"Duck, NC, USA",68,,100,,,,,12.75%,2,3,1,1,apartment,Yes,2014,Within a few hours,100%,"June 9, 2017",apartment,1,600,3,house,Kill Devil Hills
3538906ha,"Oceanfront  condo in OBX Fully Renovated 2 Bedroom, 2 Bath Condo On The Beach",35.903912,-75.5943704,"South Nags Head, Nags Head, NC, USA",60,4.9,214,,,,,12.75%,3,6,2,2,condo,Yes,2013,Within 12 hours,100%,"June 3, 2017",condo,3,1000,6,,Kill Devil Hills
824378,Charming Oceanfront Beach Cottage,35.857779,-75.56865857,"South Nags Head, Nags Head, NC, USA",18,4.9,443,,,,,12.75%,7,7,3,1,cottage,Yes,2016,Within a day,90%,"June 7, 2017",cottage,,1200,7,,Kill Devil Hills
3876435ha,BEACHFRONT WITH AMAZING OCEAN AND SUNRISE VIEWS - NEWLY RENOVATED,35.90147866,-75.5932546,"South Nags Head, Nags Head, NC, USA",33,4.9,256,,,,,12.75%,3,7,2,2,condo,Yes,2015,Within a few hours,100%,"June 9, 2017",condo,1,980,7,building,Kill Devil Hills
188243,"Walk to Community Center-165 feet, Beach Access-190 feet, and Town of Duck 2000 feet",36.16542435,-75.7454071,"Duck, NC, USA",34,4.8,306,,,,,,7,18,8,7,house,Yes,2004,Within a few hours,,"June 7, 2017",house,,,18,,Kill Devil Hills
829944,Perfect For Small Family Or Couples,36.112054,-75.733138,"Southern Shores, NC, USA",32,,119,100,,,,12.75%,2,4,2,2,house,Yes,2016,Within a few hours,100%,"June 9, 2017",house,,,,,Kill Devil Hills
296256,Cozy Cottage in Kitty Hawk with Gorgeous Ocean Views!,36.08132553,-75.70150757,"Kitty Hawk, NC, USA",91,4.8,143,,,,,12.75%,3,10,4,2,cottage,Yes,2010,Within an hour,100%,"June 9, 2017",cottage,,,,,Kill Devil Hills
449176,Oceanfront Condo - See Dolphins at Dawn from your deck!,36.1730367,-75.7497421,"Duck, NC, USA",101,4.8,165,165,,,,12.75%,2,5,1,2,condo,Yes,2012,Within a few hours,100%,"June 8, 2017",condo,2,800,5,,Kill Devil Hills
809050,Ask About Free Pool Heat during your Fall Vacation at Blue Yonder,36.106757,-75.7161689,"Southern Shores, NC, USA",8,4.8,225,,,,,,7,9,4,2,house,Yes,2004,Within a few hours,,"June 7, 2017",house,,,9,,Kill Devil Hills
4049219ha,BEACHFRONT WITH AMAZING SUNRISES!,35.903912,-75.5943704,"South Nags Head, Nags Head, NC, USA",15,,199,100,,,,12.75%,3,6,2,2,condo,Yes,2015,Within 12 hours,100%,"June 9, 2017",condo,1,980,6,building,Kill Devil Hills
471909,"Fresh, Clean, Oceanfront Beach Condo At OBX 2 Bedroom, 2 Bath",35.903912,-75.5943704,"South Nags Head, Nags Head, NC, USA",61,4.8,221,130,,,,12.75%,2,6,2,2,condo,Yes,2013,Within 12 hours,100%,"June 9, 2017",condo,2,950,,,Kill Devil Hills
513115,Oceanfront! Wave Hi To The Surf From Your Private Deck!,36.173037,-75.7497424,"Duck, NC, USA",71,4.9,195,,,,,12.75%,2,4,1,2,condo,Yes,2012,Within 12 hours,90%,"June 8, 2017",condo,3,700,4,building,Kill Devil Hills
395432,"Spectacular Oceanfront View!, W/ Semi-Private Beach Access",35.85758591,-75.56852722,"South Nags Head, Nags Head, NC, USA",86,,326,249,,,,,3,10,4,2,cottage,Yes,2012,Within an hour,100%,"June 8, 2017",cottage,,,10,,Kill Devil Hills
179747ha,End unit with wonderful ocean views!   Renovated in 2016,36.17305402,-75.74980667,"Duck, NC, USA",39,4.6,157,,,,,12.75%,3,6,1,2,condo,Yes,2008,Within a few hours,100%,"June 9, 2017",condo,,,6,,Kill Devil Hills
803188,"Four Seasons, Renovated, TOP AMENITIES, Pool & Theater Room!",36.16077473,-75.74597559,"Duck, NC, USA",22,,313,395,,,175,12.75%,3,16,6,5,house,Yes,2016,Within a few hours,100%,"May 30, 2017",house,,3650,16,,Kill Devil Hills
3643209ha,Old Nags Head Charm At It's Best,35.976372,-75.633954,"Nags Head, NC, USA",21,4.9,343,,,,,12.75%,4,10,4,2,cottage,Yes,2013,Within a day,100%,"June 9, 2017",cottage,,,10,,Kill Devil Hills
457034,"Ocean Front, WIFI ,  Away from the crowds but close to Restaurants and Shopping",35.8966979,-75.589383,"South Nags Head, Nags Head, NC, USA",82,,471,550,,,,12.75%,3,8,4,2,house,Yes,2011,Within an hour,100%,"June 7, 2017",house,,1500,8,,Kill Devil Hills
747536,"Renovated Cottage W/Screened Porch, Ocean View, 4 Min Walk To Beach!",36.074087,-75.696228,"Kitty Hawk, NC, USA",37,4.9,142,179,,,,12.75%,2,9,3,2,house,Yes,2015,Within an hour,100%,"June 9, 2017",house,,1008,9,,Kill Devil Hills
3556876ha,Direct Oceanfront View! Beautifully Renovated Condo w/ 2 King-Sized Beds,,,"South Nags Head, Nags Head, NC, USA",46,4.8,268,,,,,,2,6,2,2,condo,Yes,2013,Within an hour,,"June 9, 2017",condo,1,954,6,,Kill Devil Hills
617537,"4 Bedroom 2 Bath Cottage, Quiet beaches of Southern Shores",36.1159419,-75.72376,"Southern Shores, NC, USA",43,4.9,150,,,,,12.75%,3,8,4,2,cottage,Yes,2014,Within an hour,100%,"June 9, 2017",cottage,,1300,8,,Kill Devil Hills
419384,"OCEANFRONT! 5/31-6/3 Rent 2 nights,Get 1 night free!Views, ramp access,dogs OK",36.1058189,-75.714253,"Southern Shores, NC, USA",34,4.7,495,,,,,11.75%,3,7,3,2,house,Yes,2012,Within 12 hours,100%,"June 9, 2017",house,,,7,,Kill Devil Hills
667198,Oceanfront Gem Nestled In The Dunes With Endless Ocean Sunrises,36.17289843,-75.74999989,"Duck, NC, USA",44,4.8,204,,,,,12.75%,2,6,1,2,condo,Yes,2012,Within a few hours,100%,"June 6, 2017",condo,1,800,,building,Kill Devil Hills
836000,This Cozy Cottage by the Sea will steal your Heart and calm your Soul.,36.17,-75.749846,"Duck, NC, USA",20,4.5,100,100,,,,12.75%,2,8,4,2,cottage,Yes,2016,,,"June 9, 2017",cottage,,1200,8,,Kill Devil Hills
664977,5 Star Beach House.....for the perfect vacation!!,36.077915,-75.698929,"Kitty Hawk, NC, USA",24,4.8,175,,,,150,13.0%,3,12,4,4,house,Yes,2015,Within a few hours,100%,"June 9, 2017",house,,2400,,,Kill Devil Hills
3596756ha,"Enjoy Spectacular Sunrises, Oceanfront Relaxation and OBX Fun in style at The Paisley Marlin!",,,"South Nags Head, Nags Head, NC, USA",32,4.9,131,,,,,,2,7,2,2,condo,Yes,2013,Within an hour,,"June 9, 2017",condo,2,954,7,,Kill Devil Hills
661809,PIPERS WATCH- 222 yds from PRIVATE BEACH-ACCESS! VIEW 4 MILES- AMAZING SUNSETS,35.88928157,-75.58770653,"South Nags Head, Nags Head, NC, USA",27,4.6,123,125,,,90,12.75%,2,8,3,1,cottage,Yes,2014,Within a few hours,100%,"June 8, 2017",cottage,,1160,8,,Kill Devil Hills
425275,LG2 - Sat to Sat - A true beach cottage. No roads to cross. Lifeguard on Duty,35.8985297,-75.5921102,"South Nags Head, Nags Head, NC, USA",23,4.6,150,150,,,,12.75%,3,10,4,2,cottage,Yes,2012,Within 12 hours,100%,"June 9, 2017",cottage,,,,,Kill Devil Hills
19758,Cozy Cottage with Ocean Views,36.07460403,-75.69657898,"Kitty Hawk, NC, USA",43,,211,175,,,,12.75%,3,8,4,2,cottage,Yes,2002,Within 12 hours,100%,"June 1, 2017",cottage,,1200,8,,Kill Devil Hills
