listing_id,listing_title,latitude,longitude,location_name,number_reviews,average_rating,average_nightly_price,nightly,weekend_night,property_protection_fee,cleaning_fee,tax_rate,min_stay,sleeps,bedrooms,bathrooms,property_type,internet,member_since,response_time,response_rate,calendar_last_updated,type,floor,sq_footage,max_occupancy,building_type,city
900103,"2 Bed/ 2 Bath, Lake Merritt Condo,  washer and dryer in unit",37.797579,-122.253869,"Produce and Waterfront, Oakland, CA, USA",0,,,,,,75,16.0%,90,2,2,2,condo,Yes,2016,Within 2 days,100%,"June 5, 2017",condo,3,1000,2,building,Oakland
264663,Newly Renovated Artist Loft in Historic Building Near ~BART~,37.8125161,-122.269178,"Northgate - Waverly, Oakland, CA, USA",48,4.4,120,120,,,50,,3,4,Studio,1,condo,Yes,2009,Within a day,100%,"May 28, 2017",condo,2,,4,,Oakland
3630074ha,Quaint Berkeley Craftsman House & Centrally Located,37.86008,-122.2835135,"Southwest Berkeley, Berkeley, CA, USA",19,4.5,157,155,165,,80,,3,5,2,1,house,Yes,2012,Within an hour,100%,"June 5, 2017",house,,1000,5,,Oakland
136969,Berkeley Elegant Short Term Rental - Gorgeous Yard with Deck,37.86687851,-122.27690887,"Central Berkeley, Berkeley, CA, USA",7,4.7,118,,,,,,21,4,1,1,condo,Yes,2007,Within 12 hours,100%,"June 3, 2017",condo,,750,4,,Oakland
627914,Berkeley Charmer in coveted Elmwood. Close to UCB and transportation,37.854434,-122.255177,"Elmwood, Berkeley, CA, USA",64,4.7,105,120,,,,,2,2,Studio,1,apartment,Yes,2014,Within a day,100%,"June 5, 2017",apartment,1,,2,house,Oakland
430123,Stunning 1 Bedroom Near the North Berkeley Bart,37.871648,-122.285801,"Northwest Berkeley, Berkeley, CA, USA",55,,146,170,,,85,,3,3,1,1,apartment,Yes,2012,Within a few hours,100%,"May 24, 2017",apartment,,,3,,Oakland
758790,Brand New Cottage In Great Berkeley Neighborhood.,37.854434,-122.255177,"Elmwood, Berkeley, CA, USA",27,,220,220,,,,,3,4,2,1,cottage,Yes,2014,Within 12 hours,100%,"June 6, 2017",cottage,,640,4,,Oakland
493340,Upper-Rockridge Hilltop Gem!,37.845805,-122.231629,"Upper Rockridge, Oakland, CA, USA",42,,229,250,,,100,,3,6,2,1,house,Yes,2013,Within a few hours,100%,"June 6, 2017",house,,1100,6,,Oakland
305266,"Panoramic Views of San Francisco and Bay, Beautiful Garden, Hot Tub",,,"Maxwell Park, Oakland, CA, USA",97,,159,159,,,,14.0%,3,4,2,1,apartment,Yes,2010,Within 12 hours,100%,"June 6, 2017",apartment,1,1100,4,house,Oakland
875270,Alameda Victorian 2 bedroom  many restuarants.,37.761577,-122.247928,"Alameda, CA, USA",2,4.5,150,150,,,130,,7,4,2,1,apartment,Yes,2009,Within an hour,100%,"April 8, 2017",apartment,1,900,4,building,Oakland
592622,"Modern 2BR  in Rockridge / Berkeley, Walkable to Shops, Dining, Grocers, BART",37.84783045,-122.25842735,"Upper Telegraph, Oakland, CA, USA",40,4.8,205,200,225,,125,,1,8,2,1,apartment,Yes,2014,Within 12 hours,100%,"June 6, 2017",apartment,1,850,8,house,Oakland
815324,"Berkeley Craftsman, vegetarian home,  99% Walkability Rating",37.869574,-122.29613,"Northwest Berkeley, Berkeley, CA, USA",15,4.9,170,165,170,,100,,2,6,2,1,house,Yes,2016,Within a few hours,100%,"June 5, 2017",house,,880,6,,Oakland
921181ha,Prime Elmwood District - Quiet and Elegant Private Apartment,37.858294,-122.25109,"Elmwood, Berkeley, CA, USA",12,4.6,135,130,150,,,,3,4,1,1,house,Yes,2011,Within a day,90%,"May 22, 2017",house,,,4,,Oakland
584026,Lovely 2 Bedroom Flat In The Heart Of The Gourmet Ghetto,37.880829,-122.266835,"North Berkeley, Berkeley, CA, USA",16,4.6,199,199,,,,3.0%,3,4,2,1,house,Yes,2013,Within an hour,100%,"June 7, 2017",house,,1100,4,,Oakland
438648,Even More Affordable Vacation Rental In Alameda - Sf Bay Area,37.760435,-122.235758,"Alameda, CA, USA",57,4.9,118,118,,,75,10.0%,2,4,1,1,apartment,Yes,2012,Within a few hours,100%,"June 1, 2017",apartment,,,4,,Oakland
249444,Rockridge Bungalow Outfitted W/Style - Steps to College Ave!,37.83835983,-122.25031281,"Rockridge, Oakland, CA, USA",80,4.7,129,129,,,70,14.0%,3,4,1,1,house,Yes,2009,Within a day,100%,"June 4, 2017",house,,700,4,,Oakland
202715,2BR VINTAGE HOME-RESTORED-CENTRAL BERKELEY,37.861082,-122.273186,"South Berkeley, Berkeley, CA, USA",25,,200,200,,,,,5,6,2,1,house,Yes,2008,Within a few hours,90%,"June 6, 2017",house,,1200,6,,Oakland
884615,"Sunny and lush. 2-BR, 1-BA duplex Close to BART, restaurants, Cal campus",37.8764474,-122.2926245,"Northwest Berkeley, Berkeley, CA, USA",13,4.8,185,185,,,,,3,4,2,1,apartment,Yes,2016,Within an hour,100%,"June 6, 2017",apartment,1,850,4,house,Oakland
816968,"Charming Garden Cottage - Walk To College Ave, Bart, Cal Campus Stadium",37.8597161,-122.2486923,"Claremont, Berkeley, CA, USA",9,4.9,292,350,,,,12.0%,3,5,1,1,cottage,Yes,2016,Within a few days,60%,"June 6, 2017",cottage,,,5,,Oakland
639641,"Rockridge House - Garden, Hot Tub",37.8470023,-122.2587629,"Upper Telegraph, Oakland, CA, USA",24,,200,220,,,,14.0%,3,4,1,1,house,Yes,2008,Within 12 hours,90%,"June 7, 2017",house,,740,4,,Oakland
579645,2 Bedroom Condo Only 1 Block to UCB,37.876411,-122.265074,"North Berkeley, Berkeley, CA, USA",3,4.7,394,525,,,,,2,5,2,1,condo,Yes,2011,Within a few hours,100%,"June 6, 2017",condo,2,,5,,Oakland
855703,Bay Area Charming 1938 Art Deco Duplex,37.76193527,-122.23984187,"East End, Alameda, CA, USA",16,,169,169,,,,10.0%,3,4,1,1,house,Yes,2013,Within an hour,100%,"June 6, 2017",house,,650,4,house,Oakland
763831,Cozy Bungalow On The Emeryville Border,37.8375047,-122.2806919,"Oakland, CA, USA",15,4.9,171,179,,,120,17.0%,3,5,2,1,house,Yes,2013,Within an hour,100%,"June 7, 2017",house,,854,5,,Oakland
651062,"A virtual Garden of Eden where it is okay to eat the apple, or orange!",37.800311,-122.197263,"Dimond, Oakland, CA, USA",20,4.8,151,145,159,,75,,3,4,2,1,cottage,Yes,2014,Within an hour,100%,"May 19, 2017",cottage,,690,4,,Oakland
829292,"North Berkeley Bungalow, Cul-De-Sac",37.877836,-122.281995,"North Berkeley, Berkeley, CA, USA",18,4.9,198,220,,,75,13.0%,3,4,2,1,house,Yes,2016,Within a few hours,100%,"May 24, 2017",house,,1100,4,,Oakland
4104340ha,Stunning One Bedroom Apartment With Gorgeous City Views,37.81237808,-122.27512835,"West Oakland, Oakland, CA, USA",0,,121,130,,,125,,2,5,1,1,apartment,Yes,2015,Within a few days,80%,"June 6, 2017",apartment,,,5,,Oakland
158242,Gorgeous Upper Flat in Historic Berkeley Queen Anne Duplex,37.8724098,-122.2719963,"Downtown Berkeley, Berkeley, CA, USA",7,3.9,121,,,,175,,21,4,1,1,apartment,Yes,2007,Within a day,90%,"May 25, 2017",apartment,,,4,,Oakland
367413,"Golden Gate Bridge View from Light, Bright Oakland Hills Home",37.82258224,-122.19966125,"Shepherd Canyon, Oakland, CA, USA",27,4.8,285,310,,,75,,5,6,3,2,house,Yes,2011,Within 12 hours,100%,"May 20, 2017",house,,1400,6,,Oakland
4053221ha,Bright & Spacious 1-Bedroom Apartment,37.8116875,-122.2756919,"West Oakland, Oakland, CA, USA",0,,121,130,,,125,,2,5,1,1,apartment,Yes,2015,Within 2 days,80%,"June 6, 2017",apartment,,900,5,,Oakland
894808,Enjoy The Backyard Full Of Flowers And Fruit Trees,37.77579821,-122.26120817,"West Alameda, Alameda, CA, USA",3,,140,,,,,10.0%,4,4,2,1,house,Yes,2016,Within an hour,90%,"June 6, 2017",house,,850,4,house,Oakland
3730521ha,The Bay Area at Its Best (Unit 3),37.772977,-122.154234,"Sequoyah, Oakland, CA, USA",33,4.7,149,129,149,,99,14.0%,2,4,2,1,apartment,Yes,2010,Within 12 hours,100%,"June 6, 2017",apartment,2,900,4,,Oakland
107682,Luxury View Condo Walking Distance to U.C. Berkeley Campus,37.86819458,-122.24568939,"Berkeley, CA, USA",18,4.8,311,290,330,,110,,3,6,3,2,apartment,Yes,2006,Within a day,90%,"June 5, 2017",apartment,1,,6,building,Oakland
781045,"One Bedroom, Quiet Hidden Haven Close To Downtown Berkeley",37.8702023,-122.2757943,"Central Berkeley, Berkeley, CA, USA",9,4.4,125,139,,,100,3.0%,3,2,1,1,cottage,Yes,2013,Within an hour,100%,"June 7, 2017",cottage,,550,2,,Oakland
854362,Sanctuary in the Oakland Hills,37.844329,-122.217478,"Merriewood, Oakland, CA, USA",1,,200,,,,220,14.0%,14,6,2,2,house,Yes,2016,Within a day,100%,"June 5, 2017",house,,1450,6,,Oakland
315213,Italian Garden Flat with Grand Piano (Sleeps 2),37.83769989,-122.23107147,"Upper Rockridge, Oakland, CA, USA",53,,135,135,,,50,,4,2,1,1,apartment,Yes,2010,Within an hour,100%,"June 6, 2017",apartment,,500,,house,Oakland
509093,Garden Oasis In The Heart Of Berkeley,37.881721,-122.266406,"North Berkeley, Berkeley, CA, USA",6,4.8,114,125,,,75,,5,2,1,1,cottage,Yes,2013,Within a day,100%,"June 3, 2017",cottage,,550,2,,Oakland
3943870ha,The Bay Area at Its Best (Unit 2),37.77305332,-122.15422327,"Sequoyah, Oakland, CA, USA",15,4.5,135,129,149,,99,14.0%,2,4,2,1,apartment,No,2010,Within 12 hours,100%,"June 6, 2017",apartment,,,4,,Oakland
4201895ha,Hillside 3BR Montclair Home W/SF BayViews,,,"Montclair, Oakland, CA, USA",21,4.9,284,,,,,,1,6,3,2,house,Yes,2014,Within an hour,,"June 7, 2017",house,,,6,,Oakland
3997029ha,Lovely 3BD Victorian Flat in Berkeley,37.8502256,-122.2731131,"South Berkeley, Berkeley, CA, USA",20,4.6,275,299,320,,150,,2,5,3,1,house,Yes,2015,Within a day,90%,"June 6, 2017",house,,,5,,Oakland
261295,Sophisticated Flat with Spectacular Bay/Golden Gate/~SF~ Views,37.85904312,-122.23005676,"Claremont Hills, Oakland, CA, USA",49,,325,395,,,150,,3,6,2,2,apartment,Yes,2009,Within a few hours,100%,"May 17, 2017",apartment,1,1500,6,house,Oakland
3529053ha,The Bay's Best Kept Secret!,37.773975,-122.136812,"Sequoyah, Oakland, CA, USA",15,3.9,102,99,,,90,14.0%,2,4,2,1,apartment,Yes,2010,Within a day,100%,"June 6, 2017",apartment,1,900,4,house,Oakland
506738,Spacious 2 Bedroom Flat in the heart of the Gourmet Ghetto,37.88083806,-122.26689068,"North Berkeley, Berkeley, CA, USA",24,4.7,209,209,,,120,3.0%,3,6,2,1,house,Yes,2013,Within 12 hours,100%,"June 7, 2017",house,,1300,6,,Oakland
780523,Beautiful Garden Bungalow,37.84175,-122.285895,"Golden Gate, Oakland, CA, USA",12,4.3,110,110,,,60,14.0%,,2,1,1,bungalow,Yes,2015,Within a few hours,100%,"June 5, 2017",bungalow,,,2,,Oakland
919365,"Sunny loft in Berkeley quiet area near 4th street, restaurants, cafes and shops.",,,"Southwest Berkeley, Berkeley, CA, USA",1,,120,120,,,60,,7,2,1,1,studio,Yes,2016,Within a few days,70%,"June 1, 2017",studio,2,980,2,building,Oakland
383534,Private Retreat in the Heart of Rockridge. Walk to Everything!,37.84790802,-122.25589752,"Upper Telegraph, Oakland, CA, USA",55,,250,250,,,,,3,6,2,2,house,Yes,2011,Within 2 days,100%,"June 3, 2017",house,,,6,,Oakland
1080890,"Quiet 2100 sq ft home, 4 blocks to Cal campus, 5 to gourmet ghetto, great views",,,"Northside, Berkeley, CA, USA",0,,,,,,200,,30,4,2,2,townhome,Yes,2017,,,"June 3, 2017",townhome,,2100,,,Oakland
480689,"Garden Setting, 2 Bedroom + Large Office, 3 Blocks to Cal, & off-street parking!",37.879381,-122.264334,"North Berkeley, Berkeley, CA, USA",20,4.8,198,,,,100,,7,4,2,1,condo,Yes,2013,Within a few hours,100%,"May 30, 2017",condo,,1400,4,,Oakland
732692,Charming Berkeley Craftsman Cottage,37.872562,-122.289591,"Northwest Berkeley, Berkeley, CA, USA",9,4.4,160,150,175,,125,,3,4,2,1,cottage,Yes,2015,Within a few hours,100%,"June 6, 2017",cottage,,1000,4,,Oakland
421501,Convienient & Clean North Berkeley Flat next to BART,37.8749047,-122.2848282,"Northwest Berkeley, Berkeley, CA, USA",20,4.9,196,,,,0,,7,5,2,1,apartment,Yes,2012,Within a few hours,100%,"May 17, 2017",apartment,1,,5,,Oakland
196109,Spectacular Custom-Built North Berkeley Vacation Flat,37.87159,-122.27275,"Downtown Berkeley, Berkeley, CA, USA",34,,325,325,,,,,3,5,3,2,apartment,Yes,2008,Within a few hours,100%,"May 27, 2017",apartment,2,1300,5,,Oakland
4085634ha,"2Bd Stylish Condo In Oakland Hills, 23 Min To San Francisco (A4)",37.77270562,-122.154234,"Sequoyah, Oakland, CA, USA",8,4.4,184,129,149,,99,14.0%,2,5,2,1,condo,No,2010,Within a day,100%,"June 6, 2017",condo,,,5,,Oakland
4117292ha,ELEGANT APARTMENT IN VICTORIAN,37.8117,-122.275815,"West Oakland, Oakland, CA, USA",4,3.5,120,120,,,125,,2,5,1,1,apartment,Yes,2015,Within a few days,70%,"June 6, 2017",apartment,1,900,5,house,Oakland
422904,Breathtaking San Francisco and Bay Views,37.868236,-122.246163,"Berkeley, CA, USA",12,4.5,150,150,,,,,14,4,2,1,house,Yes,2012,Within a few hours,100%,"May 6, 2017",house,,800,4,,Oakland
438646,Affordable Vacation Rental in Alameda - SF Bay Area,37.760435,-122.235758,"Alameda, CA, USA",71,,129,129,,,75,10.0%,2,4,1,1,apartment,Yes,2012,Within 12 hours,100%,"June 1, 2017",apartment,,,4,,Oakland
720006,Sunny Apartment Overlooking the Garden,37.86993158,-122.27562264,"Central Berkeley, Berkeley, CA, USA",17,4.8,171,179,,,120,3.0%,3,4,2,1,apartment,Yes,2013,Within an hour,100%,"June 7, 2017",apartment,2,850,4,building,Oakland
920252,SAFE Neighborhood - 20 min. to S.F.,,,"Northwest Berkeley, Berkeley, CA, USA",1,,169,155,180,,100,9.5%,2,6,2,1,house,Yes,2016,Within an hour,90%,"June 3, 2017",house,,,6,,Oakland
662531,Beautiful Central Berkeley Home,37.868859,-122.276931,"Central Berkeley, Berkeley, CA, USA",13,,210,255,,,150,,4,6,3,2,house,Yes,2014,Within 12 hours,100%,"May 5, 2017",house,,,6,,Oakland
3952448ha,Summer  Bay View Montclair Cottage,,,"Merriewood, Oakland, CA, USA",37,4.4,214,,,,,,2,8,3,1,house,Yes,2014,Within an hour,,"June 6, 2017",house,,,8,,Oakland
768399,"3,600 sf in best area. Towering Palm Trees Outside. Gorgeous Original Art Inside",37.816177,-122.237457,"Lakeshore, Oakland, CA, USA",13,4.5,500,650,850,,,14.0%,,16,5,3,house,Yes,2015,Within 2 days,90%,"June 5, 2017",house,,3000,16,,Oakland
699012,Beautiful 3 Bedrooms with Private Back Yard - 1 mile from UC and Downtown,37.86316852,-122.27581885,"Central Berkeley, Berkeley, CA, USA",15,4.7,195,195,,,,,,6,3,1,apartment,Yes,2014,Within a few days,90%,"June 6, 2017",apartment,1,800,6,building,Oakland
950611,Quiet South Berkeley Garden Cottage,,,"Southwest Berkeley, Berkeley, CA, USA",5,,109,109,,,30,,2,4,1,1,house,Yes,2015,Within an hour,100%,"June 6, 2017",house,,700,4,,Oakland
495316,Gorgeous Flat w/Free Off Street Parking,37.7605689,-122.250439,"Alameda, CA, USA",46,,179,169,179,,,10.0%,2,5,2,1,apartment,Yes,2013,Within an hour,90%,"May 26, 2017",apartment,2,1200,5,house,Oakland
718370,Private Craftsman Bungalow,37.85052632,-122.26923449,"Upper Telegraph, Oakland, CA, USA",13,4.9,300,300,,,,,3,5,3,1,house,Yes,2015,Within 12 hours,90%,"May 31, 2017",house,,1200,5,,Oakland
851575,Quiet 1 bedroom walking distance from UC Berkeley!,37.8574182,-122.2556832,"Elmwood, Berkeley, CA, USA",5,4.8,130,110,,,80,,2,2,1,1,apartment,Yes,2016,Within a few days,60%,"May 22, 2017",apartment,1,,2,building,Oakland
784461,Enchanting Three Bedroom Berkeley Home,37.853538,-122.250244,"Elmwood, Berkeley, CA, USA",13,4.9,364,350,,,150,,4,6,3,2,house,Yes,2016,Within 12 hours,100%,"June 6, 2017",house,,1800,6,,Oakland
504865,Alameda Island Bungalow Retreat,,,"Alameda, CA, USA",18,4.9,260,260,,,,10.0%,4,6,3,1,house,Yes,2014,Within a few hours,100%,"June 6, 2017",house,,1650,6,,Oakland
4336136ha,Gorgeous Newly Furnished Craftsman House in Prestigious Alameda East Side,37.7573513,-122.2268788,"Alameda, CA, USA",7,4.6,315,315,350,,120,,3,8,3,2,house,Yes,2016,Within a few hours,80%,"June 6, 2017",house,,1550,8,,Oakland
128954,Gourmet Ghetto Garden Studio,,,"North Berkeley, Berkeley, CA, USA",5,,164,,,,75,,14,2,1,1,studio,Yes,2001,Within 12 hours,100%,"May 11, 2017",studio,,,2,,Oakland
938138ha,Beautiful and Lush Hidden Wisteria Cottage,37.762466,-122.248481,"Alameda, CA, USA",56,,115,115,,,,,3,2,1,1,cottage,Yes,2011,Within a day,90%,"June 5, 2017",cottage,,750,2,,Oakland
289716ha,The Bay Area at its Best (Unit 1),37.7729659,-122.154214,"Sequoyah, Oakland, CA, USA",38,4.6,157,129,149,,99,14.0%,3,4,2,1,condo,Yes,2010,Within a few hours,100%,"June 6, 2017",condo,1,900,4,,Oakland
788050,"Beautiful, Tropical & Sunny Lagoon Setting",,,"Alameda, CA, USA",5,4.2,300,300,350,,250,10.0%,2,6,3,3,house,Yes,2007,Within a few days,50%,"May 28, 2017",house,,1750,6,,Oakland
1006625,Cozy Bay Area Studio w/Private Bath,37.83526,-122.279238,"Emeryville, CA, USA",4,4.5,67,67,,,30,10.0%,3,2,1,1,guest house,No,2017,Within a day,100%,"June 7, 2017",guest house,,,,,Oakland
428823,"Great house for families/friends, or business retreat in Oakland hills",37.83656,-122.223471,"Upper Rockridge, Oakland, CA, USA",27,,300,300,,,160,,2,8,3,2,house,Yes,2012,Within 12 hours,100%,"June 3, 2017",house,,,8,,Oakland
492958,Popular Quiet 2 BR Upper Vacation Rental Flat - Walk to Rockridge BART & TJs,37.838108,-122.255391,"Shafter, Oakland, CA, USA",9,4.8,156,149,,,,14.0%,4,4,2,1,house,Yes,2013,Within an hour,100%,"June 5, 2017",house,,1200,4,,Oakland
617809,1-BR GARDEN FLAT WITH FIREPLACE NEAR BERKELEY IN GORGEOUS WOODSY AREA,37.834205,-122.202419,"Montclair, Oakland, CA, USA",4,4.5,117,,,,199,1.4%,30,4,1,1,apartment,Yes,2014,Within 2 days,90%,"May 4, 2017",apartment,1,900,4,house,Oakland
642042,BRIDGES VIEW BEAUTIFUL APARTMENT with easy parking,37.815935,-122.209949,"Oakmore, Oakland, CA, USA",43,4.9,120,120,,,,14.0%,,4,1,1,apartment,Yes,2014,Within an hour,100%,"May 23, 2017",apartment,1,500,4,,Oakland
888322,Cute cottage in quiet neighborhood,37.86468,-122.277797,"Central Berkeley, Berkeley, CA, USA",2,,125,125,,,,,5,3,1,1,cottage,Yes,2016,Within 12 hours,100%,"February 16, 2017",cottage,,400,3,,Oakland
1017755,Quiet Sunny Oasis in the Heart of ROCKRIDGE...  No Car Needed!  Walk to Shops!!!,,,"Rockridge, Oakland, CA, USA",1,,128,149,,,149,,3,8,4,1,house,No,2017,Within a few days,60%,"June 1, 2017",house,,,,,Oakland
239965,Historic Edwardian! 8 blocks to  UC Berkeley Campus! 2 blocks to College Ave!,37.85425186,-122.25634003,"Elmwood, Berkeley, CA, USA",23,,213,,,,,,30,8,3,1,house,Yes,2009,Within 12 hours,80%,"May 30, 2017",house,,1800,8,,Oakland
661009,1927 GRAND CUSTOM SPANISH MED HOME,,,"Piedmont Pines, Oakland, CA, USA",0,,400,450,,,,,2,5,3,2,house,Yes,2014,Within a few hours,90%,"April 19, 2017",house,,,5,,Oakland
867575,"Epic, gorgeous, huge mansion",37.795023,-122.240961,"Oakland, CA, USA",4,,800,750,1,,,14.0%,,50,9,4,house,Yes,2015,Within a few hours,90%,"June 5, 2017",house,,8500,50,,Oakland
288565,Garden Apartment Located in a Wonderful Old Victorian Home,,,"West Alameda, Alameda, CA, USA",26,4.9,130,125,150,,,,3,4,1,1,apartment,No,2010,Within a day,80%,"June 1, 2017",apartment,,,4,,Oakland
3946842ha,"A delightful floating home, a retreat in Berkeley",37.8652409,-122.3112405,"Berkeley Marina, Berkeley, CA, USA",5,,130,,,,,12.0%,7,2,1,1,house boat,No,2015,,,"February 2, 2017",house boat,,,2,,Oakland
857230,Cozy Elmwood Studio -Walk to CAL,37.8621,-122.2509147,"Elmwood, Berkeley, CA, USA",15,4.7,86,100,,,45,,2,2,1,1,cottage,Yes,2014,Within 12 hours,100%,"May 29, 2017",cottage,,120,2,house,Oakland
452318,Berkeley Hills House in The Claremont ~ Spectacular Golden Gate Views,37.858292,-122.239546,"Claremont Hills, Oakland, CA, USA",10,,282,,,,,,7,6,3,1,house,Yes,2012,Within a day,90%,"May 19, 2017",house,,1800,6,,Oakland
258234,A Little Heaven on a Hillside. Walk to the Stadium and Greek Theatre,37.86845016,-122.24633026,"Berkeley, CA, USA",33,4.8,464,500,,,200,,3,6,3,3,house,Yes,2009,Within a day,80%,"June 3, 2017",house,,5000,6,,Oakland
631142,Furnished Ground Floor Apartment In A Peaceful Neighborhood,37.881886,-122.266429,"North Berkeley, Berkeley, CA, USA",5,4.8,161,179,,,,,5,5,2,1,apartment,Yes,2014,Within 12 hours,100%,"May 31, 2017",apartment,1,760,5,house,Oakland
502087,Heart-of-Elmwood Cottage With Private Patio And Loggia,37.856162,-122.253872,"Elmwood, Berkeley, CA, USA",19,4.9,165,165,,,,12.0%,4,4,1,1,cottage,Yes,2013,Within a few days,90%,"May 29, 2017",cottage,,650,4,,Oakland
1054204,Elegant Fully Furnished Corporate Housing - One Month Minimum,37.7715568,-122.2339323,"Jingletown, Oakland, CA, USA",0,,135,135,,,,,30,3,3,2,townhome,Yes,2012,Within a day,100%,"June 6, 2017",townhome,2,1600,,building,Oakland
582462,"Historic home near University of California, Great views of the Bay",37.8805346,-122.2582236,"Berkeley Hills, Berkeley, CA, USA",14,4.8,150,185,,,,,4,4,1,1,apartment,Yes,2013,Within an hour,100%,"June 6, 2017",apartment,1,500,4,,Oakland
3897262ha,"Cheery, tranquil, garden cottage in Berkeley",37.867561,-122.273379,"Central Berkeley, Berkeley, CA, USA",17,,179,150,,,100,,2,4,1,1,house,Yes,2015,Within 12 hours,100%,"June 5, 2017",house,,500,,,Oakland
4133391ha,Gorgeous 4 Bedroom/2 Bath Townhouse In Oakland,37.8116875,-122.2756919,"West Oakland, Oakland, CA, USA",4,,250,250,,,175,,3,9,4,2,townhome,Yes,2015,Within 12 hours,90%,"June 6, 2017",townhome,,1000,9,house,Oakland
458620,Charming Apartment One Block From Berkeley Campus,37.877513,-122.26706,"North Berkeley, Berkeley, CA, USA",16,,160,,,,,,14,4,2,1,apartment,Yes,2013,Within a day,100%,"April 12, 2017",apartment,1,800,4,,Oakland
487640,Charming 1937 Craftsman Bungalow,37.807711,-122.211206,"Dimond, Oakland, CA, USA",22,4.5,195,195,,,120,,3,6,3,2,house,Yes,2013,Within 12 hours,100%,"June 7, 2017",house,,1700,6,,Oakland
989629,Sunny And Quiet Home Located Near Everything!,37.8752904,-122.2718892,"North Berkeley, Berkeley, CA, USA",3,4.7,173,155,,,30,,2,2,1,1,house,Yes,2017,Within a day,90%,"June 2, 2017",house,,950,,,Oakland
498170,Penthouse Condo a short distance from UC. Very private gorgeous San Fran views,37.868316,-122.2460226,"Berkeley, CA, USA",21,4.8,492,450,500,,140,,3,8,3,2,condo,Yes,2006,Within a day,80%,"June 5, 2017",condo,3,1800,8,,Oakland
634204,"Alameda 3 bedroom beach house, family-friendly, modern and clean",37.762497,-122.267955,"West Alameda, Alameda, CA, USA",25,,229,229,,,140,,4,6,3,2,house,Yes,2014,Within a few hours,100%,"June 7, 2017",house,,1250,6,,Oakland
485557,Charming Flat in Best Rockridge/Claremont Location,37.8521372,-122.2415186,"Claremont Hills, Oakland, CA, USA",13,4.6,143,145,,,100,,3,3,1,1,studio,Yes,2013,Within a day,90%,"June 3, 2017",studio,,,3,house,Oakland
808437,Garden Cottage very near BART,37.85133959,-122.26734622,"Upper Telegraph, Oakland, CA, USA",4,3.8,96,96,,,,,2,2,1,1,cottage,Yes,2015,Within an hour,100%,"April 10, 2017",cottage,,200,2,,Oakland
340788,Lovely Laurel District Sanctuary-Spacious One Bedroom Duplex/Flat With Parking,37.78991699,-122.20024109,"Laurel, Oakland, CA, USA",29,4.7,133,149,149,,80,14.0%,3,5,1,1,house,Yes,2011,Within a few hours,100%,"June 5, 2017",house,,1000,5,,Oakland
